{"copyright":"Copyright Sveriges Radio 2015. All rights reserved.","messages":[{"id":1539416,"priority":5,"createddate":"/Date(1447764180897+0100)/","title":"Rv 84 Sörsforsa-Delsbo","exactlocation":"Vid avfarten Näsviken","description":"","latitude":61.74943542480469,"longitude":16.835500717163086,"category":0,"subcategory":"Vägarbete"},{"id":1263776,"priority":3,"createddate":"/Date(1449851342583+0100)/","title":"Örebro län ","exactlocation":"","description":" Risk för lokal frosthalka under kväll och natt. ","latitude":59.4352722,"longitude":14.7333231,"category":0,"subcategory":"Halkvarning"},{"id":1568323,"priority":3,"createddate":"/Date(1449948256627+0100)/","title":"E14  Åre","exactlocation":"","description":" World cup Åre pågår under helgen 12-13 december. Ökad trafik i området.","latitude":63.39990997314453,"longitude":13.08237075805664,"category":0,"subcategory":"Trafikstörning"},{"id":1407249,"priority":5,"createddate":"/Date(1437382657240+0200)/","title":"Rv 55 Uppsala","exactlocation":"Tpl Tycho Hedéns väg","description":"Arbete med att bygga en ny järnvägsbro över Tycho Hedéns väg. Begränsad höjd är 3,2 meter.","latitude":59.87918472290039,"longitude":17.634679794311523,"category":0,"subcategory":"Vägarbete"},{"id":1566552,"priority":3,"createddate":"/Date(1449736933900+0100)/","title":"E4/E20 Essingeleden","exactlocation":"Av- och påfarter tpl Fredhäll","description":"Arbete med vägräcken. ","latitude":59.32927322387695,"longitude":18.009450912475586,"category":0,"subcategory":"Vägarbete"},{"id":1483398,"priority":3,"createddate":"/Date(1447830550287+0100)/","title":"Lv 282 Uppsala Almungevägen","exactlocation":"Mellan brandstationen och E4","description":"Arbete på vägen. Risk för köbildning även ut på E4 vid trafikplats Kumla.","latitude":59.84631644520587,"longitude":17.720024407748333,"category":0,"subcategory":"Vägarbete"},{"id":1553125,"priority":4,"createddate":"/Date(1448547814650+0100)/","title":"Mora","exactlocation":"Fridhemsgatan","description":"Avstängd mellan Moragatan och Oxbergsvägen. Omledning uppskyltad.","latitude":61.002901588480924,"longitude":14.535675134854968,"category":0,"subcategory":"Vägarbete"},{"id":1551339,"priority":3,"createddate":"/Date(1449823361427+0100)/","title":"Lv 864 Danholn-Sundborn","exactlocation":"Överbackavägen","description":"Avstängt från 26/11 ca kl. 11:00. Pga arbeten med vatten och avlopp.","latitude":60.623680114746094,"longitude":15.79430103302002,"category":0,"subcategory":"Vägarbete"},{"id":1497351,"priority":3,"createddate":"/Date(1449668783383+0100)/","title":"Lv 120 Delary–Älmhult","exactlocation":"","description":"Begränsad framkomlighet förbi arbetet. Endast ett körfält öppet förbi så trafiken får köra växelvis. Risk för långa köer. ","latitude":56.549530029296875,"longitude":14.026314735412598,"category":0,"subcategory":"Vägarbete"},{"id":1439931,"priority":3,"createddate":"/Date(1449044498187+0100)/","title":"E20 Strängnäs","exactlocation":"Tpl Biskopskvarn (137)- tpl Lunda (136), mot Eskilstuna","description":"Begränsad framkomlighet. Bygge av järnvägsbro över E20. ","latitude":59.365291595458984,"longitude":16.964046478271484,"category":0,"subcategory":"Vägarbete"},{"id":1484713,"priority":3,"createddate":"/Date(1448612981103+0100)/","title":"E22 Söderköping","exactlocation":"Östra Rydsvägen–tpl Klevbrinken i riktning mot Norrköping","description":"Begränsad framkomlighet. Byggnation av en ny gång- och cykelväg.","latitude":58.483070373535156,"longitude":16.312185287475586,"category":0,"subcategory":"Vägarbete"},{"id":1557116,"priority":3,"createddate":"/Date(1449850438837+0100)/","title":"Lv 240 Molkom-Hagfors","exactlocation":"Fösked-Älvsbacka","description":"Begränsad framkomlighet. Diknings- och dräneringsarbete.","latitude":59.67658996582031,"longitude":13.683475494384766,"category":0,"subcategory":"Vägarbete"},{"id":1513371,"priority":3,"createddate":"/Date(1448533660523+0100)/","title":"E22 Kalmar–Karlskrona","exactlocation":"tpl Ljungbyholm–Hossmo i riktning mot Karlskrona","description":"Begränsad framkomlighet. Körfält avstängt vid arbetsplats för byggnation av nya väg E22","latitude":56.63808059692383,"longitude":16.222171783447266,"category":0,"subcategory":"Vägarbete"},{"id":1508092,"priority":5,"createddate":"/Date(1444103600370+0200)/","title":"Lv 241 från Sunne-Lerdalen","exactlocation":"","description":"Beläggningsarbete.","latitude":59.83991622924805,"longitude":13.188547134399414,"category":0,"subcategory":"Vägarbete"},{"id":1568634,"priority":3,"createddate":"/Date(1450012221180+0100)/","title":"E22 Gårdstånga - Rolsberga ","exactlocation":"Vid Hurva","description":"Bil i mitträcket","latitude":55.78836435259233,"longitude":13.432439839996555,"category":0,"subcategory":"Trafikolycka"},{"id":1568639,"priority":3,"createddate":"/Date(1450012242453+0100)/","title":"E20 Göteborg-Alingsås","exactlocation":"Jonseredsmotet","description":"Bil som tappat ett hjul.","latitude":57.74396896362305,"longitude":12.157600402832031,"category":0,"subcategory":"Trafikstörning"},{"id":1534135,"priority":3,"createddate":"/Date(1449551664123+0100)/","title":"Lv 660 Norrberge-Midlanda","exactlocation":"Bron över Indalsälven","description":"Bron är avstängd. Trafik hänvisas via E4","latitude":62.51906967163086,"longitude":17.42425537109375,"category":0,"subcategory":"Vägarbete"},{"id":1559533,"priority":3,"createddate":"/Date(1449135552837+0100)/","title":"Lv 541 Hassel-Lucksta","exactlocation":"","description":"Byte av vägtrumma. ","latitude":62.273338317871094,"longitude":16.879863739013672,"category":0,"subcategory":"Vägarbete"},{"id":1544476,"priority":3,"createddate":"/Date(1447668545113+0100)/","title":"Rv 55 Strängnäs-Enköping","exactlocation":"Hjulstabron-cirkulationsplats Enögla riktning mot Uppsala","description":"Dikning. Rörligt arbete.","latitude":59.518310546875,"longitude":17.004179000854492,"category":0,"subcategory":"Vägarbete"},{"id":1566793,"priority":3,"createddate":"/Date(1449757248790+0100)/","title":"E4 tpl Sörberge (233) i riktning mot Umeå","exactlocation":"","description":"Ett avstängt körfält.","latitude":62.516319274902344,"longitude":17.391677856445312,"category":2,"subcategory":"Vägarbete"},{"id":1557249,"priority":3,"createddate":"/Date(1449031807503+0100)/","title":"E4 Nyköping-Norrköping","exactlocation":"Trafikplats Gammelsta (128), i riktning mot Norrköping.","description":"Ett körfält avstängt. ","latitude":58.753318786621094,"longitude":16.547788619995117,"category":0,"subcategory":"Vägarbete"},{"id":1511539,"priority":4,"createddate":"/Date(1449984735827+0100)/","title":"Västmanlands län","exactlocation":"","description":"Fortfatt risk för lokal frosthalka.","latitude":59.946888,"longitude":16.2786083,"category":0,"subcategory":"Halkvarning"},{"id":1511540,"priority":4,"createddate":"/Date(1449984811443+0100)/","title":"Uppsala län","exactlocation":"","description":"Fortsatt risk för lokal frosthalka.","latitude":59.96126,"longitude":17.78068,"category":0,"subcategory":"Halkvarning"},{"id":1568482,"priority":3,"createddate":"/Date(1449991960013+0100)/","title":"Lv 836.01 Överkalixs kommun","exactlocation":"Röduppleden","description":"Färjan är inställd. Ingen isväg i nuläget.","latitude":66.48563385009766,"longitude":22.77780532836914,"category":1,"subcategory":"Färja"},{"id":1521191,"priority":3,"createddate":"/Date(1447151600150+0100)/","title":"Magnus Ladulåsgatan mot Rosenlundsgatan","exactlocation":"Mellan Västgötagatan och Swedenborgsgatan","description":"Gatan enkelriktad mot Rosenlundsgatan från Västgötagatan till Swedenborgsgatan. Schakt för fjärrvärme. ","latitude":59.31259536743164,"longitude":18.066604614257812,"category":0,"subcategory":"Vägarbete"},{"id":1554578,"priority":3,"createddate":"/Date(1448868215437+0100)/","title":"Lv 316 Vemdalen-Åsarna","exactlocation":"Klövsjö","description":"Grävarbeten och nedläggning av kabel.  ","latitude":62.503658294677734,"longitude":14.200440406799316,"category":0,"subcategory":"Vägarbete"},{"id":1565286,"priority":3,"createddate":"/Date(1449587917697+0100)/","title":"Valhallavägen","exactlocation":"Mellan Surbrunnsgatan och Frejgatan","description":"Höger körfält avstängt på grund av vägarbete.","latitude":59.34732437133789,"longitude":18.065418243408203,"category":0,"subcategory":"Vägarbete"},{"id":1568549,"priority":3,"createddate":"/Date(1450003248780+0100)/","title":"Rv 40 Bollebygd-Göteborg","exactlocation":"Strax före Landvetters flygplats","description":"Höger körfält blockerat. Bil snurrat. Mycket halt i området.","latitude":57.668058704762466,"longitude":12.389280426556018,"category":0,"subcategory":"Trafikolycka"},{"id":1565713,"priority":3,"createddate":"/Date(1449656661303+0100)/","title":"Lv 646 Ingarövägen","exactlocation":"","description":"Ingarövägen / Eknäsvägen, arbete med breddning av vägbana. Begränsad framkomlighet fram till 31/12","latitude":59.28085708618164,"longitude":18.43422508239746,"category":0,"subcategory":"Vägarbete"},{"id":1567269,"priority":3,"createddate":"/Date(1449817379927+0100)/","title":"E22 Oskarshamn","exactlocation":"","description":"Kabelarbete i mark","latitude":57.24911880493164,"longitude":16.423765182495117,"category":0,"subcategory":"Vägarbete"},{"id":1534043,"priority":3,"createddate":"/Date(1447690500393+0100)/","title":"E22 Gusum–Ringarum","exactlocation":"","description":"Kortare omledning på en tillfällig väg. Byte av rörbro.","latitude":58.30965805053711,"longitude":16.483673095703125,"category":0,"subcategory":"Vägarbete"},{"id":1442001,"priority":3,"createddate":"/Date(1447822581000+0100)/","title":"Lv 156 Skene","exactlocation":"Korsningen Varbergsvägen/Örbyvägen","description":"Körfält avstängt. Arbetsfordon finns på vägbanan. Arbete med att bredda vägen. ","latitude":57.48634338378906,"longitude":12.646737098693848,"category":0,"subcategory":"Vägarbete"},{"id":1567592,"priority":3,"createddate":"/Date(1449849180070+0100)/","title":"E6 av-/påfart från Bällskärsvägen, E6 (Tpl Tingstadsmotet) till E6.21 (Tpl Ringömotet) i Göteborg kommun","exactlocation":"Av-/påfart från Bällskärsvägen, Tingstadsmotet, södergående","description":"Körfält stängs av i samband med schaktningsarbeten.","latitude":57.73060607910156,"longitude":11.983270645141602,"category":0,"subcategory":"Vägarbete"},{"id":1406672,"priority":3,"createddate":"/Date(1449851288547+0100)/","title":"E20 Partille–Lerum","exactlocation":"Jerikotunneln–Fräntorpsmotet(78)","description":"Körfält stängs av nattetid på grund av asfalteringsarbete.","latitude":57.74127197265625,"longitude":12.185935974121094,"category":0,"subcategory":"Vägarbete"},{"id":1567569,"priority":3,"createddate":"/Date(1449849030527+0100)/","title":"E6 vid Ringömotet","exactlocation":"Södergående","description":"Körfältsavstängning i samband med ombyggnadsarbete.\n","latitude":57.72996520996094,"longitude":11.982913970947266,"category":0,"subcategory":"Vägarbete"},{"id":1557011,"priority":3,"createddate":"/Date(1449741868593+0100)/","title":"Visingsö-Gränna","exactlocation":"","description":"Lastbilar och andra höga fordon får ej åka med färjan pga hård vind.","latitude":58.03407287597656,"longitude":14.349037170410156,"category":1,"subcategory":"Färja"},{"id":1567268,"priority":3,"createddate":"/Date(1449817436943+0100)/","title":"Lv 527 Bergkvara","exactlocation":"Dalsärsvägen, i båda riktningar.","description":"Lednings- och telearbeten.","latitude":56.38615036010742,"longitude":16.090486526489258,"category":0,"subcategory":"Vägarbete"},{"id":1566765,"priority":3,"createddate":"/Date(1449849081740+0100)/","title":"Härryda-Bollebyggd","exactlocation":"Härryda kyrka-Björredsmotet (76)","description":"Ledningsarbete i riktning mot Göteborg.","latitude":57.690269470214844,"longitude":12.278976440429688,"category":0,"subcategory":"Vägarbete"},{"id":1568567,"priority":3,"createddate":"/Date(1450005183227+0100)/","title":"Borås","exactlocation":"","description":"Linje 601, ingen busstrafik sträckan Långetjärn - Djurstensvägen i båda riktningar på grund av halka. Närmaste hållplats är Nysätersvägen.","latitude":57.732319055639245,"longitude":12.941197550153344,"category":1,"subcategory":"Buss"},{"id":1566276,"priority":4,"createddate":"/Date(1449822626587+0100)/","title":"Eksjö, Aneby, Nässjö, Sävsjö, Vetlanda kommuner","exactlocation":"","description":"Lördagen den 12 december kl. 08.00-20.00 kommer ett planerat underhåll att genomföras på höglandskommunernas IT-system. På grund av detta arbete kan det under angiven tid vara vissa störningar i telefoni/fax, vilket innebär att det stundvis kan vara svårt att nå lördagsöppna verksamheter","latitude":57.618959728855074,"longitude":15.209367366788056,"category":3,"subcategory":"Tele och data"},{"id":1557082,"priority":3,"createddate":"/Date(1448892369050+0100)/","title":"E16 Kungsgården-Sandviken","exactlocation":"Mellan tpl Åsen och tpl Sandviken Västra i riktning mot Sandviken","description":"Montering av fundament för elstolpar.","latitude":60.60951232910156,"longitude":16.647851943969727,"category":0,"subcategory":"Vägarbete"},{"id":1568620,"priority":3,"createddate":"/Date(1450011015730+0100)/","title":"Västerås","exactlocation":"Österleden","description":"Ner mot E18 Hjortar på vägen","latitude":59.620887826314,"longitude":16.571020368402696,"category":0,"subcategory":"Trafikstörning"},{"id":1566037,"priority":3,"createddate":"/Date(1449671272970+0100)/","title":"Västmanlands län","exactlocation":"","description":"Ny länstidtabell för bussarna från och med söndag.","latitude":59.614310143005376,"longitude":16.455678087926202,"category":1,"subcategory":"Buss"},{"id":1550333,"priority":3,"createddate":"/Date(1448285745917+0100)/","title":"Kungsholmen Rålambshovsleden","exactlocation":"Mellan Rålambshovsparken och Norr Mälarstrand i riktning mot city","description":"Ombyggnad av gatan och cykelbanan.","latitude":59.330692291259766,"longitude":18.021507263183594,"category":0,"subcategory":"Vägarbete"},{"id":1546988,"priority":3,"createddate":"/Date(1447913096053+0100)/","title":"Rv 61 Åmotsfors-Charlottenberg","exactlocation":"Dalen till Solhem ","description":"Ombyggnad till 2+1 väg.","latitude":59.78485870361328,"longitude":12.354942321777344,"category":0,"subcategory":"Vägarbete"},{"id":1568630,"priority":3,"createddate":"/Date(1450011137540+0100)/","title":"E4 Rolfs -Kalix ","exactlocation":"","description":"Renar på eller brevid vägen","latitude":65.85330200195312,"longitude":23.132564544677734,"category":0,"subcategory":"Trafikstörning"},{"id":1568631,"priority":3,"createddate":"/Date(1450011104793+0100)/","title":"E4 tpl Lampen- tpl Vånafjärden ","exactlocation":"","description":"Renar på eller brevid vägen","latitude":65.82178497314453,"longitude":23.29925537109375,"category":0,"subcategory":"Trafikstörning"},{"id":1487662,"priority":4,"createddate":"/Date(1449851514780+0100)/","title":"Dalarnas län","exactlocation":"  ","description":"Risk för lokal frosthalka. ","latitude":60.7344055,"longitude":14.7284212,"category":0,"subcategory":"Halkvarning"},{"id":1487657,"priority":4,"createddate":"/Date(1449851449117+0100)/","title":"Gävleborgs län","exactlocation":"","description":"Risk för lokal frosthalka.","latitude":61.4704742,"longitude":16.70279,"category":0,"subcategory":"Halkvarning"},{"id":1505778,"priority":4,"createddate":"/Date(1449811874517+0100)/","title":"Jämtlands län","exactlocation":"  ","description":"Risk för lokal frosthalka.","latitude":63.4809952,"longitude":14.326333,"category":0,"subcategory":"Halkvarning"},{"id":1539616,"priority":5,"createddate":"/Date(1447690760343+0100)/","title":"Lv 873 i Kiruna ","exactlocation":"","description":"Schaktning för ny vattenledning för nya stadskärnan. Schaktningsarbetet kommer att ske i vägmitt.","latitude":67.84821319580078,"longitude":20.291839599609375,"category":0,"subcategory":"Vägarbete"},{"id":1568627,"priority":3,"createddate":"/Date(1450010403667+0100)/","title":"E4 Värnamo-Lagan","exactlocation":"Vid tpl Hallsjö","description":"Stillastående bil där det är enfiligt","latitude":56.96330645195941,"longitude":14.00889431613958,"category":0,"subcategory":"Trafikstörning"},{"id":1568622,"priority":3,"createddate":"/Date(1450009817263+0100)/","title":"E4 Hölö- Vagnhärad mot Nyköping ","exactlocation":"","description":"Stillastående bil, väntar på bärgare","latitude":59.02724075317383,"longitude":17.555448532104492,"category":0,"subcategory":"Trafikstörning"},{"id":1568621,"priority":3,"createddate":"/Date(1450010438647+0100)/","title":"Lv 120 tpl Strömsnäs-Traryd","exactlocation":"Vid Luhrpasset ","description":"Stillastående trasig lastbil","latitude":56.56167984008789,"longitude":13.725069046020508,"category":0,"subcategory":"Trafikstörning"},{"id":1563801,"priority":2,"createddate":"/Date(1449824938100+0100)/","title":"Skinnskatteberg–Örebro","exactlocation":"Frövi","description":"Stopp för tågtrafik mellan Skinnskatteberg och Örebro. Godståg spårat ur. Prognos 30/12.","latitude":59.465029844507576,"longitude":15.366200419183267,"category":1,"subcategory":"Tåg"},{"id":1481993,"priority":3,"createddate":"/Date(1443014816513+0200)/","title":"Rv 23 Växjö","exactlocation":"Korsningen Stora Räppevägen/Norrleden","description":"Stundtals köer. Byggnation av gång- och cykelport.","latitude":56.869258880615234,"longitude":14.73924732208252,"category":0,"subcategory":"Vägarbete"},{"id":1515180,"priority":3,"createddate":"/Date(1448361541940+0100)/","title":"Rv 32 Tranås-Sommen","exactlocation":"","description":"Södergående trafik leds av vid Tenbäcken och kör gamla vägen till Tranås. Norrgående trafik passerar på rv 32 som vanligt, begränsad framkomlighet där. Omledningen beräknas gälla fram till jul. Vägen byggs om till 2+1-väg ","latitude":58.06538772583008,"longitude":14.95679759979248,"category":0,"subcategory":"Vägarbete"},{"id":1568110,"priority":3,"createddate":"/Date(1449928351680+0100)/","title":"Kraftledingsbesiktning","exactlocation":"Örebro, Garphyttan, Lekhyttan, Hasselfors och Laxå\n","description":"Söndag 13/12 mellan 08:30-16:00. Lågt flygande helikopter över dessa områden","latitude":59.292941370281085,"longitude":15.205735881980136,"category":3,"subcategory":"Buller"},{"id":1546358,"priority":5,"createddate":"/Date(1448822530847+0100)/","title":"Midvägen Östersund","exactlocation":"","description":"Till följd av ökad obehörig trafik vid Lugnvikskolan stängs Midvägen av för trafik mellan 07.00-17.00. Under den tiden får endast fordon i linjetrafik samt fordon med rörelsehindrad person som innehar parkeringstillstånd färdas på vägen.","latitude":63.205564994924174,"longitude":14.630246761853261,"category":0,"subcategory":"Trafikstörning"},{"id":1568547,"priority":3,"createddate":"/Date(1450003039287+0100)/","title":"E45 Göteborg","exactlocation":"Mellan Jordfallsbron och Nödinge, riktning norrut","description":"Tillfälligt stoppp pga olycka. Mycket halt i området.","latitude":57.871660821728426,"longitude":12.031137066390043,"category":0,"subcategory":"Trafikolycka"},{"id":1562926,"priority":3,"createddate":"/Date(1449638194460+0100)/","title":"Rv 55 Uppsala–Enköping","exactlocation":"Litslena - tpl Annelund (143) i riktning mot Strängnäs ","description":"Trafiken leds med signal eller vakt. ","latitude":59.66455841064453,"longitude":17.266510009765625,"category":0,"subcategory":"Vägarbete"},{"id":1557988,"priority":3,"createddate":"/Date(1448964155283+0100)/","title":"E6 Strömstad–Svinesund","exactlocation":"Nordbymotet (114)–Svinesund","description":"Trafiken leds över på en körbana. Orsaken är rivning av en betalstation.","latitude":59.07704162597656,"longitude":11.24947738647461,"category":0,"subcategory":"Vägarbete"},{"id":1526215,"priority":5,"createddate":"/Date(1449570678643+0100)/","title":"Rv 72 Vänge-Kvarnbo","exactlocation":"","description":"Trafiken regleras med ljussignaler på grund av kabelarbete.","latitude":59.85140609741211,"longitude":17.49069595336914,"category":0,"subcategory":"Vägarbete"},{"id":1568618,"priority":3,"createddate":"/Date(1450009119290+0100)/","title":"Uddevalla","exactlocation":"Herrestarakan X vid IKEA","description":"Trafiksignalerna är nersläckta","latitude":58.3513571923813,"longitude":11.841711283820002,"category":0,"subcategory":"Trafikstörning"},{"id":1563338,"priority":5,"createddate":"/Date(1449414609677+0100)/","title":"Lv 815 Fellingsbro-Örebro","exactlocation":"Karltorp","description":"Träd över vägen i riktning mot Örebro","latitude":59.379780734207195,"longitude":15.439994573446493,"category":0,"subcategory":"Trafikstörning"},{"id":1548340,"priority":3,"createddate":"/Date(1448363227647+0100)/","title":"Tvärbanan","exactlocation":" ","description":"Tvärbanan mellan Alvik-Solna ersätts med bussar till 13 december. Buss 22A ersätter. ","latitude":59.33376570984184,"longitude":17.98004902892394,"category":1,"subcategory":"Spårvagn"},{"id":1546979,"priority":4,"createddate":"/Date(1449855190090+0100)/","title":"Nässjö–Vetlanda/ Nässjö–Eksjö","exactlocation":"","description":"Tågen ersätts måndag-fredag, efter kl 9.00 med bussar mellan 9/11 - 11/12","latitude":57.65880228822624,"longitude":14.685434266461895,"category":1,"subcategory":"Tåg"},{"id":1564938,"priority":3,"createddate":"/Date(1449559482167+0100)/","title":"Blodcentralerna","exactlocation":"","description":"Vädjan till allmänheten att hjälpa till med blodlagren genom att lämna blod inför kommande helger. Välkommen till de  fasta blodcentralerna eller blodbussar.","latitude":59.32815695796981,"longitude":18.16465430127802,"category":3,"subcategory":"Hälsa och sjukvård"},{"id":1530106,"priority":3,"createddate":"/Date(1446026202917+0100)/","title":"Rv 87 Stugun","exactlocation":"","description":"Vägarbete genom Stugun. TMA-bil på vägen. Rör sig personer på vägbanan. ","latitude":63.16762924194336,"longitude":15.618271827697754,"category":0,"subcategory":"Vägarbete"},{"id":1556757,"priority":5,"createddate":"/Date(1449574238383+0100)/","title":"Rv 55 Uppsala-Enköping","exactlocation":"Bärbyleden/Enköpingsvägen","description":"Vägarbete.","latitude":59.855125427246094,"longitude":17.592878341674805,"category":0,"subcategory":"Vägarbete"},{"id":1542094,"priority":3,"createddate":"/Date(1448619042497+0100)/","title":"Borås","exactlocation":"Åsbogatan, mellan Kungsleden och Allégatan","description":"Vägen avstängd pga byggnation av bussfil.","latitude":57.719811893090274,"longitude":12.943832949851924,"category":0,"subcategory":"Vägarbete"},{"id":1564907,"priority":3,"createddate":"/Date(1449557910173+0100)/","title":"Lv 1541 Mjöbäck–Mårdaklev","exactlocation":"","description":"Vägen avstängd tills vidare. Reparationsarbete efter översvämningsskador.","latitude":57.29132080078125,"longitude":12.942523002624512,"category":0,"subcategory":"Trafikstörning"},{"id":1537497,"priority":5,"createddate":"/Date(1448822506417+0100)/","title":"Lv 1019 vid Storulvån båda riktningarna","exactlocation":"","description":"Vägen till Storulvån är vinterstängd mellan 1/11 - 31/1.","latitude":63.21542739868164,"longitude":12.406817436218262,"category":0,"subcategory":"Trafikstörning"},{"id":1566630,"priority":3,"createddate":"/Date(1449743241087+0100)/","title":"Göteborg–Gamlestadsvägen ","exactlocation":"Mellan Slakthusgatan och Väg 190","description":"Vägen är stängd strax efter Alelyckans köpcenter. Det går att välja intilliggande Lärjeågatan som allternativ.\n","latitude":57.755306243896484,"longitude":12.010954856872559,"category":0,"subcategory":"Vägarbete"},{"id":1558430,"priority":4,"createddate":"/Date(1449257762383+0100)/","title":"Lv 531 Funäsdalen-Ljungdalen ","exactlocation":"Från Mittådalen till Ljungdalen ","description":"Vägen över Flatruet är nattstängd mellan klockan 22:00-06:00 under perioden 1 December-15 April. Vid besvärligt väder kan vägen stängas med kort varsel även under annan tid.","latitude":62.77565383911133,"longitude":12.765754699707031,"category":0,"subcategory":"Trafikstörning"},{"id":1568559,"priority":3,"createddate":"/Date(1450004168277+0100)/","title":"Rv 26 Mariestad-Skövde","exactlocation":"Strax söder om Infarten till Timmersdala","description":"Älg på vägsidan av viltstängslet.","latitude":58.521767646679,"longitude":13.825343247556933,"category":0,"subcategory":"Trafikstörning"},{"id":1545140,"priority":4,"createddate":"/Date(1449852353140+0100)/","title":"Köpenhamn–Malmö","exactlocation":"","description":"Var uppmärksam på förändringar i tågtrafiken. Justeringar i tågtrafiken görs för att minimera förseningar till följd av Polisens gränskontroller.","latitude":55.560997011796715,"longitude":12.96726502689128,"category":1,"subcategory":"Tåg"},{"id":1558549,"priority":4,"createddate":"/Date(1449064961027+0100)/","title":"Umeå, Umeälven","exactlocation":"Vid järnvägsbron mellan Bergsboda och Stor-Sandskär","description":"Isränna bryts så fort isen lägger sig. Isrännan kvarstår december ut.  ","latitude":63.76707632042192,"longitude":20.32501859948121,"category":3,"subcategory":"Övrigt"},{"id":1551498,"priority":3,"createddate":"/Date(1449807322783+0100)/","title":"Västberga","exactlocation":"Västberga allé bron över järnvägen ","description":"Omlagd körväg för linje 165, linje 143 dras in på sträckan Liljeholmen-Älvsjö stn.  Nya linje145 trafikerar sträckan Telefonplan-Västberga-Årstaberg-(Liljeholmen). ","latitude":59.288072367712566,"longitude":18.01951159520339,"category":1,"subcategory":"Buss"},{"id":1564995,"priority":3,"createddate":"/Date(1449807323750+0100)/","title":"Västberga-Älvsjö","exactlocation":"Västberga allé bron som går över järnvägen och Åbyvägen","description":"Bron stängs av för renovering 14 december. Kommer att vara avstängd för biltrafik till sommaren 2017. ","latitude":59.288883209228516,"longitude":18.018430709838867,"category":0,"subcategory":"Vägarbete"},{"id":1566368,"priority":3,"createddate":"/Date(1449820100007+0100)/","title":"Södra Sverige","exactlocation":"","description":"Efter stormen Helga uppmanas allmänheten att vara uppmärksam och undvika elledningar och stolpar som ligger på marken. ","latitude":58.288074715220574,"longitude":12.299652025804424,"category":3,"subcategory":"El"},{"id":1564467,"priority":3,"createddate":"/Date(1449855993837+0100)/","title":"Ankdammsgatan","exactlocation":"Korsningen Huvudstagatan","description":"Korsningen är enkelriktad, trafiken från Ankdammsgatan får inte köra ut på Huvudstagatan.","latitude":59.35640492453957,"longitude":17.997326555475574,"category":0,"subcategory":"Trafikstörning"},{"id":1566029,"priority":3,"createddate":"/Date(1449848795240+0100)/","title":"Västra Götaland","exactlocation":"","description":"Från och med söndag får Västtrafik nya tidtabeller. På många håll justeras även körvägar.","latitude":58.206364986307584,"longitude":12.304905291366364,"category":1,"subcategory":"Buss"},{"id":1380130,"priority":3,"createddate":"/Date(1449850891697+0100)/","title":"Lv190 Gråbovägen","exactlocation":"Bergsjökrysset","description":"Rondell byggs i korsningen Gråbovägen/Bergsjövägen som en del i den större ombyggnaden av Gråbovägen. ","latitude":57.7848526286231,"longitude":12.088115548634436,"category":0,"subcategory":"Vägarbete"},{"id":1568506,"priority":2,"createddate":"/Date(1450011857407+0100)/","title":"Göteborg med omnejd","exactlocation":"I stort sett samtliga vägar","description":"Extremt halt. Anpassa hastigheten.","latitude":57.73855177845992,"longitude":12.025076610258617,"category":0,"subcategory":"Halkvarning"},{"id":1552649,"priority":5,"createddate":"/Date(1449255662420+0100)/","title":"Roslagsbanan","exactlocation":"Stockholms östra - Universitetet ","description":"29 nov-18 dec är tågen inställda kvällstid från kl.22:40 t.o.m. trafikdygnets slut fr.o.m. kväll/natt mot måndag t.o.m. kväll/natt mot fredag. ","latitude":59.34833188363228,"longitude":18.076839632193813,"category":1,"subcategory":"Tåg"},{"id":1551906,"priority":4,"createddate":"/Date(1448869434637+0100)/","title":"Södermalm Slussen ","exactlocation":"Bussar linje 55, 57, 59 och 190-195 ","description":"Bussarna får tillfälliga hållplatslägen utmed Katarinavägen. Bussarna kör via Folkungagatan. Till och med 14 december.","latitude":59.32051788573683,"longitude":18.071432361814782,"category":1,"subcategory":"Buss"},{"id":1524596,"priority":3,"createddate":"/Date(1447846836343+0100)/","title":"E6 och Lundbyleden ","exactlocation":"Norr och söder om Tingstadstunneln","description":"Tingstadstunneln är stängd 13.10 - 13.20 tisdagar och torsdagar. Detta på grund av sprängsningsarbeten i samband med den nya Marieholmstunneln.","latitude":57.72703409845906,"longitude":11.981105082125636,"category":0,"subcategory":"Vägarbete"},{"id":1559649,"priority":4,"createddate":"/Date(1449838831743+0100)/","title":"Bollebygd, Borås, Herrljunga, Mark och Vårgårda kommuner","exactlocation":"","description":"Från 13 dec ökas utbudet av närtrafik med förbättrade möjligheter att resa kollektivt mellan landsbygd och tätort. Mer information genom Västtrafik.","latitude":57.78627462682038,"longitude":13.037226774985479,"category":1,"subcategory":"Buss"},{"id":1559646,"priority":4,"createddate":"/Date(1449838832133+0100)/","title":"Hjo, Karlsborg, Tibro och Grästorps kommuner","exactlocation":"","description":"Från 13 dec ökas utbudet av närtrafik med förbättrade möjligheter att resa kollektivt mellan landsbygd och tätort. Mer information genom Västtrafik.","latitude":58.34479994141966,"longitude":12.765015308517386,"category":1,"subcategory":"Buss"},{"id":1559653,"priority":4,"createddate":"/Date(1449838831323+0100)/","title":"Lilla Edet och Uddevalla kommuner","exactlocation":"","description":"Från 13 dec ökas utbudet av närtrafik med förbättrade möjligheter att resa kollektivt mellan landsbygd och tätort. Mer information genom Västtrafik.","latitude":58.38644830979336,"longitude":12.085438430691461,"category":1,"subcategory":"Buss"},{"id":1436158,"priority":3,"createddate":"/Date(1444908845153+0200)/","title":"Lv 824/ lv 1067 Gäddede-Klimpfjäll","exactlocation":"Stekenjokkvägen mellan Leipikvattnet och Klimpfjäll","description":"Vägen är nu stängd för säsongen. Öppnas åter för trafik 6 juni 2016.","latitude":64.84821319580078,"longitude":14.175168991088867,"category":0,"subcategory":"Vägarbete"},{"id":1552066,"priority":3,"createddate":"/Date(1449656600527+0100)/","title":"Södermalm vid Slussen","exactlocation":"Hornsgatan från Söderledstunneln till Götgatan och Södermalmstorg","description":"Korsningen avstängd för motortrafik, båda riktningarna. Beroende på större vägarbete. Bussarna släpps fram igen14 december och bilarna 4 januari. ","latitude":59.31990051269531,"longitude":18.07042694091797,"category":0,"subcategory":"Vägarbete"}],"pagination":{"page":1,"size":100,"totalhits":93,"totalpages":1},"meta":{"time":1450012787246,"bestBefore":1450013087246}}