{"copyright":"Copyright Sveriges Radio 2015. All rights reserved.","messages":[{"id":1567273,"priority":3,"createddate":"2015-12-11T08:07:26.383Z","title":"E20 Eskilstuna-Strängnäs från i Södermanlands län (D)","exactlocation":"Tpl Kjula (134) - Arphus i riktning mot Stockholm ","description":"","latitude":59.36941909790039,"longitude":16.71934700012207,"category":0,"subcategory":"Vägarbete"},{"id":1569263,"priority":3,"createddate":"2015-12-14T11:19:54.477Z","title":"E45 Malmberget-Jokkmokk","exactlocation":"Porjus-Hapsas ","description":"","latitude":66.98383331298828,"longitude":19.83392333984375,"category":0,"subcategory":"Vägarbete"},{"id":1539416,"priority":5,"createddate":"2015-11-17T12:43:00.897Z","title":"Rv 84 Sörsforsa-Delsbo","exactlocation":"Vid avfarten Näsviken","description":"","latitude":61.74943542480469,"longitude":16.835500717163086,"category":0,"subcategory":"Vägarbete"},{"id":1570716,"priority":4,"createddate":"2015-12-16T06:17:07.687Z","title":"Blodbussen","exactlocation":"Volvo SA p-platsen mot PV porten","description":"16-17 dec. Öppet mellan kl 08:30-15:00","latitude":57.72091377335396,"longitude":11.84294788499219,"category":3,"subcategory":"Hälsa och sjukvård"},{"id":1407249,"priority":5,"createddate":"2015-07-20T08:57:37.240Z","title":"Rv 55 Uppsala","exactlocation":"Tpl Tycho Hedéns väg","description":"Arbete med att bygga en ny järnvägsbro över Tycho Hedéns väg. Begränsad höjd är 3,2 meter.","latitude":59.87918472290039,"longitude":17.634679794311523,"category":0,"subcategory":"Vägarbete"},{"id":1483398,"priority":3,"createddate":"2015-11-18T07:09:10.287Z","title":"Lv 282 Uppsala Almungevägen","exactlocation":"Mellan brandstationen och E4","description":"Arbete på vägen. Risk för köbildning även ut på E4 vid trafikplats Kumla.","latitude":59.84631644520587,"longitude":17.720024407748333,"category":0,"subcategory":"Vägarbete"},{"id":1553125,"priority":4,"createddate":"2015-11-26T14:23:34.650Z","title":"Mora","exactlocation":"Fridhemsgatan","description":"Avstängd mellan Moragatan och Oxbergsvägen. Omledning uppskyltad.","latitude":61.002901588480924,"longitude":14.535675134854968,"category":0,"subcategory":"Vägarbete"},{"id":1551339,"priority":3,"createddate":"2015-12-11T08:42:41.427Z","title":"Lv 864 Danholn-Sundborn","exactlocation":"Överbackavägen","description":"Avstängt från 26/11 ca kl. 11:00. Pga arbeten med vatten och avlopp.","latitude":60.623680114746094,"longitude":15.79430103302002,"category":0,"subcategory":"Vägarbete"},{"id":1497351,"priority":3,"createddate":"2015-12-09T13:46:23.383Z","title":"Lv 120 Delary–Älmhult","exactlocation":"","description":"Begränsad framkomlighet förbi arbetet. Endast ett körfält öppet förbi så trafiken får köra växelvis. Risk för långa köer. ","latitude":56.549530029296875,"longitude":14.026314735412598,"category":0,"subcategory":"Vägarbete"},{"id":1570312,"priority":3,"createddate":"2015-12-16T13:45:54.557Z","title":"Vänersborg","exactlocation":"Korseberg i korsningen Edsvägen/Johannesbergsvägen.","description":"Begränsad framkomlighet under torsdagen 17/12. Arbete med att riva barriärerna vid den nya rondellen. Mycket personal längs vägen, passera försiktigt. Välj om möjligt annan väg. ","latitude":58.456309521711184,"longitude":12.358270349589494,"category":2,"subcategory":"Vägarbete"},{"id":1439931,"priority":3,"createddate":"2015-12-02T08:21:38.187Z","title":"E20 Strängnäs","exactlocation":"Tpl Biskopskvarn (137)- tpl Lunda (136), mot Eskilstuna","description":"Begränsad framkomlighet. Bygge av järnvägsbro över E20. ","latitude":59.365291595458984,"longitude":16.964046478271484,"category":0,"subcategory":"Vägarbete"},{"id":1484713,"priority":3,"createddate":"2015-11-27T08:29:41.103Z","title":"E22 Söderköping","exactlocation":"Östra Rydsvägen–tpl Klevbrinken i riktning mot Norrköping","description":"Begränsad framkomlighet. Byggnation av en ny gång- och cykelväg.","latitude":58.483070373535156,"longitude":16.312185287475586,"category":0,"subcategory":"Vägarbete"},{"id":1557116,"priority":3,"createddate":"2015-12-11T16:13:58.837Z","title":"Lv 240 Molkom-Hagfors","exactlocation":"Fösked-Älvsbacka","description":"Begränsad framkomlighet. Diknings- och dräneringsarbete.","latitude":59.67658996582031,"longitude":13.683475494384766,"category":0,"subcategory":"Vägarbete"},{"id":1513371,"priority":3,"createddate":"2015-11-26T10:27:40.523Z","title":"E22 Kalmar–Karlskrona","exactlocation":"tpl Ljungbyholm–Hossmo i riktning mot Karlskrona","description":"Begränsad framkomlighet. Körfält avstängt vid arbetsplats för byggnation av nya väg E22","latitude":56.63808059692383,"longitude":16.222171783447266,"category":0,"subcategory":"Vägarbete"},{"id":1571152,"priority":3,"createddate":"2015-12-16T15:00:50.833Z","title":"Rv 97 / lv 370 Boliden","exactlocation":"","description":"Begränsad framkomlighet. Skräp på vägen\n","latitude":64.87810711592303,"longitude":20.39369396171922,"category":0,"subcategory":"Trafikolycka"},{"id":1570572,"priority":3,"createddate":"2015-12-15T21:02:38.650Z","title":"E18 Örebro-Arboga","exactlocation":"Trafikplats Norrplan (115) till Länsgtränsen T/U län ","description":"Beläggningsarbete.","latitude":59.29790115356445,"longitude":15.24557113647461,"category":0,"subcategory":"Vägarbete"},{"id":1508092,"priority":5,"createddate":"2015-10-06T03:53:20.370Z","title":"Lv 241 från Sunne-Lerdalen","exactlocation":"","description":"Beläggningsarbete.","latitude":59.83991622924805,"longitude":13.188547134399414,"category":0,"subcategory":"Vägarbete"},{"id":1571130,"priority":3,"createddate":"2015-12-16T15:10:48.197Z","title":"Norrköping","exactlocation":" Linköpingsvägen vid Baldersgatan","description":"Bil har kört in i en stolpe.","latitude":58.58424302468333,"longitude":16.15268048906023,"category":0,"subcategory":"Trafikolycka"},{"id":1566776,"priority":4,"createddate":"2015-12-16T05:37:26.713Z","title":"Stockholm","exactlocation":"\n","description":"Blodbussar onsdag 16/12: Baldersgatan 12 Norrtälje, Haninge Centrum Källvägen, Stortorget Södertälje, Alkärrsplan Nynäshamn, .","latitude":59.32065297875915,"longitude":18.006091678412936,"category":3,"subcategory":"Hälsa och sjukvård"},{"id":1570662,"priority":4,"createddate":"2015-12-16T15:06:37.810Z","title":"Karlskrona kommun","exactlocation":"Södra Holmsjö","description":"Boende i de södra delarna av Holmsjö är utan vatten pga läcka. Vattentank finns vid förskolan.","latitude":56.41949941787606,"longitude":15.540568306580024,"category":3,"subcategory":"Vatten"},{"id":1534135,"priority":3,"createddate":"2015-12-08T05:14:24.123Z","title":"Lv 660 Norrberge-Midlanda","exactlocation":"Bron över Indalsälven","description":"Bron är avstängd. Trafik hänvisas via E4","latitude":62.51906967163086,"longitude":17.42425537109375,"category":0,"subcategory":"Vägarbete"},{"id":1559533,"priority":3,"createddate":"2015-12-03T09:39:12.837Z","title":"Lv 541 Hassel-Lucksta","exactlocation":"","description":"Byte av vägtrumma. ","latitude":62.273338317871094,"longitude":16.879863739013672,"category":0,"subcategory":"Vägarbete"},{"id":1569698,"priority":3,"createddate":"2015-12-15T05:13:19.603Z","title":"E4 Uppsalavägen","exactlocation":"Södergående efter påfarten från Kista (171)","description":"Början av kollektivfilen avstängd strax efter påfarten.","latitude":59.399009704589844,"longitude":17.97714614868164,"category":0,"subcategory":"Vägarbete"},{"id":1570847,"priority":3,"createddate":"2015-12-16T10:09:13.693Z","title":"Rv 30 Lammhult–Vrigstad ","exactlocation":"Nya Hjälmseryd","description":"Det kan vara smalt att passera p.g.a. broarbete.","latitude":57.23402786254883,"longitude":14.509324073791504,"category":0,"subcategory":"Vägarbete"},{"id":1571032,"priority":3,"createddate":"2015-12-16T13:18:28.457Z","title":"Stockholm/Katrineholm/Hallsberg/Karlstad/Göteborg ","exactlocation":"","description":"Det kommer att vara stora störningar i tågtrafiken under resten av onsdagen. De flesta tåg kommer att ledas om annan väg och vissa avgångar kommer att ställas in. Detta beror på ett växelfel i Pålsboda.  ","latitude":59.02316728612403,"longitude":14.945256975279417,"category":1,"subcategory":"Tåg"},{"id":1544476,"priority":3,"createddate":"2015-11-16T10:09:05.113Z","title":"Rv 55 Strängnäs-Enköping","exactlocation":"Hjulstabron-cirkulationsplats Enögla riktning mot Uppsala","description":"Dikning. Rörligt arbete.","latitude":59.518310546875,"longitude":17.004179000854492,"category":0,"subcategory":"Vägarbete"},{"id":1570665,"priority":3,"createddate":"2015-12-16T13:40:05.567Z","title":"E6 Kungsbacka","exactlocation":"Kungsbacka N/Varlaavfarten (61)-Kungsbacka Södra/Onsalaavfarten (59), södergående","description":"Ett körfält avstängt pga arbeten längs diket. Pågår under onsdagen.","latitude":57.5105094909668,"longitude":12.052202224731445,"category":0,"subcategory":"Vägarbete"},{"id":1571132,"priority":3,"createddate":"2015-12-16T14:53:40.060Z","title":"Lv 372 Skellefteå ","exactlocation":"Skelleftehamnsvägen","description":"Ett körfält avstängt ut mot hamnen","latitude":64.71394273480367,"longitude":21.1517843916556,"category":0,"subcategory":"Trafikolycka"},{"id":1557249,"priority":3,"createddate":"2015-12-02T04:50:07.503Z","title":"E4 Nyköping-Norrköping","exactlocation":"Trafikplats Gammelsta (128), i riktning mot Norrköping.","description":"Ett körfält avstängt. ","latitude":58.753318786621094,"longitude":16.547788619995117,"category":0,"subcategory":"Vägarbete"},{"id":1511540,"priority":4,"createddate":"2015-12-16T04:40:36.760Z","title":"Uppsala län","exactlocation":"","description":"Fortsatt risk för lokal frosthalka. ","latitude":59.96126,"longitude":17.78068,"category":0,"subcategory":"Halkvarning"},{"id":1511539,"priority":4,"createddate":"2015-12-16T04:40:57.087Z","title":"Västmanlands län ","exactlocation":"","description":"Fortsatt risk för lokal frosthalka.","latitude":59.946888,"longitude":16.2786083,"category":0,"subcategory":"Halkvarning"},{"id":1487819,"priority":3,"createddate":"2015-12-15T13:44:04.027Z","title":"Värmlands län","exactlocation":"","description":"Fortsatt risk för påfrysning och halka.","latitude":59.8638344,"longitude":13.2893448,"category":0,"subcategory":"Halkvarning"},{"id":1557682,"priority":3,"createddate":"2015-12-16T10:15:11.960Z","title":"Lv 891 Skenäsfärjan ","exactlocation":"","description":"Färjan står still till torsdag 17/12 08:30–16:00. Orsaken är att dykare finns i vattnet i samband med bojarbete. ","latitude":58.638118743896484,"longitude":16.59667205810547,"category":1,"subcategory":"Färja"},{"id":1568482,"priority":3,"createddate":"2015-12-15T05:28:41.237Z","title":"Röduppleden","exactlocation":"","description":"Färjan är inställd. Ingen isväg i nuläget.","latitude":66.48563385009766,"longitude":22.77780532836914,"category":1,"subcategory":"Färja"},{"id":1521191,"priority":3,"createddate":"2015-11-10T10:33:20.150Z","title":"Magnus Ladulåsgatan mot Rosenlundsgatan","exactlocation":"Mellan Västgötagatan och Swedenborgsgatan","description":"Gatan enkelriktad mot Rosenlundsgatan från Västgötagatan till Swedenborgsgatan. Schakt för fjärrvärme. ","latitude":59.31259536743164,"longitude":18.066604614257812,"category":0,"subcategory":"Vägarbete"},{"id":1554578,"priority":3,"createddate":"2015-11-30T07:23:35.437Z","title":"Lv 316 Vemdalen-Åsarna","exactlocation":"Klövsjö","description":"Grävarbeten och nedläggning av kabel.  ","latitude":62.503658294677734,"longitude":14.200440406799316,"category":0,"subcategory":"Vägarbete"},{"id":1569989,"priority":3,"createddate":"2015-12-15T08:03:26.303Z","title":"Hallens Hälsocentral","exactlocation":"","description":"Hallens Hälsocentral stängd onsdag 16 december. Patienter hänvisas då till Järpens Hälsocentral.\n","latitude":63.17585448053719,"longitude":14.089107507145268,"category":3,"subcategory":"Hälsa och sjukvård"},{"id":1565286,"priority":3,"createddate":"2015-12-08T15:18:37.697Z","title":"Valhallavägen","exactlocation":"Mellan Surbrunnsgatan och Frejgatan","description":"Höger körfält avstängt på grund av vägarbete.","latitude":59.34732437133789,"longitude":18.065418243408203,"category":0,"subcategory":"Vägarbete"},{"id":1570856,"priority":3,"createddate":"2015-12-16T10:22:07.013Z","title":"E22 Mönsterås","exactlocation":"i höjd med Fliserydsvägen","description":"Kan vara smalt att passera. Arbete med att bygga bussfickor. Arbete pågår dagtid mellan kl: 9-15","latitude":57.05103302001953,"longitude":16.43939971923828,"category":0,"subcategory":"Vägarbete"},{"id":1551659,"priority":3,"createddate":"2015-12-16T11:08:04.447Z","title":"E45 Götatunneln ","exactlocation":"","description":"kl 21:00-05:30 Västgående tunnelrör avstängt för trafik.","latitude":57.7101936340332,"longitude":11.965323448181152,"category":2,"subcategory":"Vägarbete"},{"id":1442001,"priority":3,"createddate":"2015-11-18T04:56:21.000Z","title":"Lv 156 Skene","exactlocation":"Korsningen Varbergsvägen/Örbyvägen","description":"Körfält avstängt. Arbetsfordon finns på vägbanan. Arbete med att bredda vägen. ","latitude":57.48634338378906,"longitude":12.646737098693848,"category":0,"subcategory":"Vägarbete"},{"id":1567592,"priority":3,"createddate":"2015-12-11T15:53:00.070Z","title":"E6 av-/påfart från Bällskärsvägen, E6 (Tpl Tingstadsmotet) till E6.21 (Tpl Ringömotet) i Göteborg kommun","exactlocation":"Av-/påfart från Bällskärsvägen, Tingstadsmotet, södergående","description":"Körfält stängs av i samband med schaktningsarbeten.","latitude":57.73060607910156,"longitude":11.983270645141602,"category":0,"subcategory":"Vägarbete"},{"id":1406672,"priority":3,"createddate":"2015-12-11T16:28:08.547Z","title":"E20 Partille–Lerum","exactlocation":"Jerikotunneln–Fräntorpsmotet(78)","description":"Körfält stängs av nattetid på grund av asfalteringsarbete.","latitude":57.74127197265625,"longitude":12.185935974121094,"category":0,"subcategory":"Vägarbete"},{"id":1567569,"priority":3,"createddate":"2015-12-11T15:50:30.527Z","title":"E6 vid Ringömotet","exactlocation":"Södergående","description":"Körfältsavstängning i samband med ombyggnadsarbete.\n","latitude":57.72996520996094,"longitude":11.982913970947266,"category":0,"subcategory":"Vägarbete"},{"id":1566765,"priority":3,"createddate":"2015-12-11T15:51:21.740Z","title":"Härryda-Bollebyggd","exactlocation":"Härryda kyrka-Björredsmotet (76)","description":"Ledningsarbete i riktning mot Göteborg.","latitude":57.690269470214844,"longitude":12.278976440429688,"category":0,"subcategory":"Vägarbete"},{"id":1570655,"priority":3,"createddate":"2015-12-16T04:36:54.427Z","title":"Edsbruk, Gryt, Piperskärr, Ankarsrum","exactlocation":"","description":"Lågt flygande helikopter utför ledningsbesiktning under onsdagen. Djurägare varnas.","latitude":58.01682309446857,"longitude":16.45880485048312,"category":3,"subcategory":"Buller"},{"id":1571107,"priority":3,"createddate":"2015-12-16T14:56:09.637Z","title":"E4 Söderhamn-Gävle","exactlocation":"Trafikplats Hagsta (201) till Trafikplats Gävle N (200) ","description":"Långtradare. Däckbyte ut mot vägen.","latitude":60.89921188354492,"longitude":17.021482467651367,"category":0,"subcategory":"Trafikstörning"},{"id":1569228,"priority":4,"createddate":"2015-12-16T14:06:25.560Z","title":"Västra Götalands län","exactlocation":"","description":"Minusgrader i vägarna och risk för halka. ","latitude":58.39404430131129,"longitude":13.873498995071923,"category":0,"subcategory":"Halkvarning"},{"id":1557082,"priority":3,"createddate":"2015-11-30T14:06:09.050Z","title":"E16 Kungsgården-Sandviken","exactlocation":"Mellan tpl Åsen och tpl Sandviken Västra i riktning mot Sandviken","description":"Montering av fundament för elstolpar.","latitude":60.60951232910156,"longitude":16.647851943969727,"category":0,"subcategory":"Vägarbete"},{"id":1546988,"priority":3,"createddate":"2015-11-19T06:04:56.053Z","title":"Rv 61 Åmotsfors-Charlottenberg","exactlocation":"Dalen till Solhem ","description":"Ombyggnad till 2+1 väg.","latitude":59.78485870361328,"longitude":12.354942321777344,"category":0,"subcategory":"Vägarbete"},{"id":1510364,"priority":3,"createddate":"2015-12-16T13:48:20.480Z","title":"Jönköpings län","exactlocation":"","description":"Omslag till mildare väder är på gång, men under kvällen och natten risk för halka innan temperaturen stiger.","latitude":57.47894,"longitude":14.3679695,"category":0,"subcategory":"Halkvarning"},{"id":1510366,"priority":3,"createddate":"2015-12-16T13:48:09.997Z","title":"Kalmar län","exactlocation":"","description":"Omslag till mildare väder är på gång, men under kvällen och natten risk för halka innan temperaturen stiger.","latitude":56.8659172,"longitude":15.9477434,"category":0,"subcategory":"Halkvarning"},{"id":1510367,"priority":3,"createddate":"2015-12-16T13:49:22.097Z","title":"Kronobergs län","exactlocation":"","description":"Omslag till mildare väder är på gång, men under kvällen och natten risk för halka innan temperaturen stiger.","latitude":56.7490959,"longitude":14.3933315,"category":0,"subcategory":"Halkvarning"},{"id":1511541,"priority":3,"createddate":"2015-12-16T13:49:34.190Z","title":"Östergötlands län","exactlocation":"","description":"Omslag till mildare väder är på gång, men under kvällen och natten risk för halka innan temperaturen stiger.","latitude":58.3364258,"longitude":15.6248283,"category":0,"subcategory":"Halkvarning"},{"id":1567064,"priority":3,"createddate":"2015-12-16T12:19:18.287Z","title":"Västerbottens län","exactlocation":"","description":"Onsdag 16/12 står blodbussen uppställd vid HC i Vilhelmina mellan  13:30-17 ,  17:30-19. Torsdag 17/12 mellan 8:30-12:00","latitude":63.829609840320465,"longitude":20.283355040861096,"category":3,"subcategory":"Hälsa och sjukvård"},{"id":1567473,"priority":4,"createddate":"2015-12-16T11:32:36.240Z","title":"Uppsala","exactlocation":"","description":"Onsdag 16/12 står blodbussen vid simhallen i Bålsta, kl. 14-19.","latitude":59.944871263050594,"longitude":17.71628648780889,"category":3,"subcategory":"Hälsa och sjukvård"},{"id":1571091,"priority":3,"createddate":"2015-12-16T14:25:52.697Z","title":"E4 Råneå - Töre ","exactlocation":"Vid avfarten till Strömsund","description":"Personbil i vajerräcket. Begränsad framkomlighet i båda riktningar. Köer\n","latitude":65.87385254815129,"longitude":22.38597631974436,"category":0,"subcategory":"Trafikolycka"},{"id":1571087,"priority":3,"createddate":"2015-12-16T14:12:56.020Z","title":"E4 Uppsalavägen","exactlocation":"Mot Uppsala under Haga norra","description":"Påkörd stolpe hänger från viadukten ner över vänster körfält.","latitude":59.355804443359375,"longitude":18.033527374267578,"category":0,"subcategory":"Trafikstörning"},{"id":1571139,"priority":3,"createddate":"2015-12-16T15:11:27.723Z","title":"Lv 697 Uddevalla–Väne-Ryr (gamla rv 44)","exactlocation":"Vid Rössebol","description":"Påkörd älg.","latitude":58.45187272517939,"longitude":12.183403643295565,"category":0,"subcategory":"Trafikolycka"},{"id":1570810,"priority":3,"createddate":"2015-12-16T07:54:31.353Z","title":"E4 Åkroken","exactlocation":"","description":"Renar på eller brevid vägen","latitude":65.8818359375,"longitude":22.93731689453125,"category":0,"subcategory":"Trafikstörning"},{"id":1487662,"priority":4,"createddate":"2015-12-16T14:15:41.213Z","title":"Dalarnas län","exactlocation":"  ","description":"Risk för frosthalka i hela länet under kvällen.","latitude":60.7344055,"longitude":14.7284212,"category":0,"subcategory":"Halkvarning"},{"id":1263776,"priority":3,"createddate":"2015-12-15T13:44:43.573Z","title":"Örebro län ","exactlocation":"","description":"Risk för frosthalka.","latitude":59.4352722,"longitude":14.7333231,"category":0,"subcategory":"Halkvarning"},{"id":1510363,"priority":4,"createddate":"2015-12-15T15:37:11.950Z","title":"Blekinge län","exactlocation":"","description":"Risk för lokal frosthalka.","latitude":56.3117943,"longitude":15.2829609,"category":0,"subcategory":"Halkvarning"},{"id":1487657,"priority":4,"createddate":"2015-12-11T16:30:49.117Z","title":"Gävleborgs län","exactlocation":"","description":"Risk för lokal frosthalka.","latitude":61.4704742,"longitude":16.70279,"category":0,"subcategory":"Halkvarning"},{"id":1510365,"priority":4,"createddate":"2015-12-15T15:37:25.163Z","title":"Skåne län","exactlocation":"","description":"Risk för lokal frosthalka.","latitude":55.88818,"longitude":13.6161013,"category":0,"subcategory":"Halkvarning"},{"id":1505782,"priority":4,"createddate":"2015-12-16T04:43:42.167Z","title":"Västerbottens län","exactlocation":"","description":"Risk för lokal snöhalka i fjällen samt frosthalka i resten av länet","latitude":64.9181442,"longitude":18.94519,"category":0,"subcategory":"Halkvarning"},{"id":1505778,"priority":4,"createddate":"2015-12-16T04:42:35.570Z","title":"Jämtlands län","exactlocation":"  ","description":"Risk för lokal snöhalka i fjällen samt risk för lokal fosthalka i resten av länet ","latitude":63.4809952,"longitude":14.326333,"category":0,"subcategory":"Halkvarning"},{"id":1570074,"priority":3,"createddate":"2015-12-15T16:48:28.980Z","title":"Rv 21 Hässleholm–Tyringe","exactlocation":"Tpl Finja–Smedstorp i riktning mot Tyringe","description":"Räckesarbete.","latitude":56.174617767333984,"longitude":13.680843353271484,"category":0,"subcategory":"Vägarbete"},{"id":1569515,"priority":4,"createddate":"2015-12-14T15:16:37.503Z","title":"Östergötland","exactlocation":"","description":"Röjningsarbete pågår fortfarande efter stormen Helga. Allmänheten uppmanas att vara uppmärksam och undvika elledningar och stolpar som ligger på marken. Om man gör några observationer av trasiga anläggningar kontakta Vattenfall Eldistributions felanmälan på telefon 020-82 58 58.  ","latitude":58.24989990721928,"longitude":15.799687786892436,"category":3,"subcategory":"El"},{"id":1569836,"priority":4,"createddate":"2015-12-15T10:01:17.627Z","title":"Norra Skåne","exactlocation":"","description":"Rör inte elledningar som hänger lågt eller ligger på marken. Ring till E.ons felanmälan 020-88 00 22 och rapportera.","latitude":56.06314764536058,"longitude":13.857516324200596,"category":3,"subcategory":"El"},{"id":1539616,"priority":5,"createddate":"2015-11-16T16:19:20.343Z","title":"Lv 873 i Kiruna ","exactlocation":"","description":"Schaktning för ny vattenledning för nya stadskärnan. Schaktningsarbetet kommer att ske i vägmitt.","latitude":67.84821319580078,"longitude":20.291839599609375,"category":0,"subcategory":"Vägarbete"},{"id":1571113,"priority":3,"createddate":"2015-12-16T14:14:30.390Z","title":"Gävleborgs län","exactlocation":"","description":"SMHI klass 1 varning för ishalka.","latitude":61.07691548753405,"longitude":16.916347755085,"category":3,"subcategory":"Väder"},{"id":1570661,"priority":4,"createddate":"2015-12-16T09:47:27.023Z","title":"Västra Götalands län utom Sjuhäradsbygden, Värmlands och Örebro län","exactlocation":"","description":"SMHI Klass 1 varning för plötslig ishalka under onsdag kväll. Risk för underkylt regn, regn eller blötsnö på kalla vägbanor.\n","latitude":58.714828039077545,"longitude":11.88968432502703,"category":0,"subcategory":"Halkvarning"},{"id":1571084,"priority":3,"createddate":"2015-12-16T13:36:24.960Z","title":"Sörmlands län","exactlocation":"","description":"SMHI klass 1 varning: natt mot tordag och under torsdag morgon, risk för underkylt regn, regn eller blötsnö på kalla vägbanor. ","latitude":59.35400787995512,"longitude":16.50486564679012,"category":3,"subcategory":"Väder"},{"id":1571083,"priority":3,"createddate":"2015-12-16T14:59:34.497Z","title":"Västmanlands län","exactlocation":"","description":"SMHI klass 1 varning: natt mot torsdag och under torsdag morgon, risk för underkylt regn, regn eller blötsnö på kalla vägbanor. ","latitude":59.60095136204512,"longitude":16.453428586234757,"category":3,"subcategory":"Väder"},{"id":1571082,"priority":3,"createddate":"2015-12-16T13:51:25.593Z","title":"Dalarnas län","exactlocation":"","description":"SMHI klass 1 varning: under torsdag , risk för underkylt regn, regn eller blötsnö på kalla vägbanor. ","latitude":60.616969443850316,"longitude":15.675294873862951,"category":3,"subcategory":"Väder"},{"id":1571078,"priority":3,"createddate":"2015-12-16T13:31:18.387Z","title":"Upplands län","exactlocation":"","description":"SMHI klass 1 varning: under torsdag morgon, risk för underkylt regn, regn eller blötsnö på kalla vägbanor. ","latitude":59.8403266763271,"longitude":17.67951228234347,"category":3,"subcategory":"Väder"},{"id":1570911,"priority":4,"createddate":"2015-12-16T13:53:36.590Z","title":"Värmlands län","exactlocation":"","description":"SMHI varning klass 1: Under torsdag risk för underkylt regn, regn eller blötsnö på kalla vägbanor.","latitude":59.481439200487515,"longitude":13.569497722591512,"category":3,"subcategory":"Väder"},{"id":1570912,"priority":4,"createddate":"2015-12-16T13:52:49.850Z","title":"Örebro län","exactlocation":"","description":"SMHI varning klass 1: Under torsdag risk för underkylt regn, regn eller blötsnö på kalla vägbanor.","latitude":59.310966832198496,"longitude":15.160504562763466,"category":3,"subcategory":"Väder"},{"id":1571135,"priority":3,"createddate":"2015-12-16T14:47:32.160Z","title":"E6E20 Kungsbacka - Göteborg, norrgående riktning","exactlocation":"Mellan Kållereds- och Torrekullamoten","description":"Stillastående lastbil i höger körfält.","latitude":57.617889404296875,"longitude":12.040970802307129,"category":0,"subcategory":"Trafikstörning"},{"id":1571080,"priority":3,"createddate":"2015-12-16T13:50:18.903Z","title":"E4 Gävle-Uppsala","exactlocation":"Trafikplats Gävle S (197) till Länsgräns C/X vid Hyttön ","description":"Stillastående personbil med tekniska problem.","latitude":60.635746002197266,"longitude":17.144489288330078,"category":0,"subcategory":"Trafikstörning"},{"id":1563801,"priority":2,"createddate":"2015-12-14T12:29:17.243Z","title":"Örebro-Borlänge/Falun/Gävle/Mjölby/Lindesberg","exactlocation":"Frövi","description":"Stopp för tågtrafik mellan Skinnskatteberg och Örebro pga godståg som spårat ut vid Frövi. Vissa av avgångarna som passerar Frövi går bara delsträckor, andra ersätts med buss och vissa avgångar ställs in helt. Kolla med tditt tågbolag vad som gäller just för din avgång. ","latitude":59.465029844507576,"longitude":15.366200419183267,"category":1,"subcategory":"Tåg"},{"id":1510140,"priority":3,"createddate":"2015-12-15T21:06:59.110Z","title":"Västra Götalands län","exactlocation":"","description":"Stor risk för mycket hala vägar på grund av återfrysning.","latitude":58.0697441,"longitude":12.3502855,"category":0,"subcategory":"Halkvarning"},{"id":1481993,"priority":3,"createddate":"2015-09-23T13:26:56.513Z","title":"Rv 23 Växjö","exactlocation":"Korsningen Stora Räppevägen/Norrleden","description":"Stundtals köer. Byggnation av gång- och cykelport.","latitude":56.869258880615234,"longitude":14.73924732208252,"category":0,"subcategory":"Vägarbete"},{"id":1515180,"priority":3,"createddate":"2015-11-24T10:39:01.940Z","title":"Rv 32 Tranås-Sommen","exactlocation":"","description":"Södergående trafik leds av vid Tenbäcken och kör gamla vägen till Tranås. Norrgående trafik passerar på rv 32 som vanligt, begränsad framkomlighet där. Omledningen beräknas gälla fram till jul. Vägen byggs om till 2+1-väg ","latitude":58.06538772583008,"longitude":14.95679759979248,"category":0,"subcategory":"Vägarbete"},{"id":1546358,"priority":5,"createddate":"2015-11-29T18:42:10.847Z","title":"Midvägen Östersund","exactlocation":"","description":"Till följd av ökad obehörig trafik vid Lugnvikskolan stängs Midvägen av för trafik mellan 07.00-17.00. Under den tiden får endast fordon i linjetrafik samt fordon med rörelsehindrad person som innehar parkeringstillstånd färdas på vägen.","latitude":63.205564994924174,"longitude":14.630246761853261,"category":0,"subcategory":"Trafikstörning"},{"id":1571120,"priority":2,"createddate":"2015-12-16T15:10:55.697Z","title":"Rv 46 Skövde–Falköping","exactlocation":"Mellan Borgundarondellen och Stenstorp, mot Falköping","description":"Totalstopp. Bärgning pågår av ett lastbilsekipage som har har kört i diket. Just nu ingen prognos när vägen kan öppnas igen.","latitude":58.269800529646155,"longitude":13.727005791415406,"category":0,"subcategory":"Trafikolycka"},{"id":1562926,"priority":3,"createddate":"2015-12-09T05:16:34.460Z","title":"Rv 55 Uppsala–Enköping","exactlocation":"Litslena - tpl Annelund (143) i riktning mot Strängnäs ","description":"Trafiken leds med signal eller vakt. ","latitude":59.66455841064453,"longitude":17.266510009765625,"category":0,"subcategory":"Vägarbete"},{"id":1557988,"priority":3,"createddate":"2015-12-01T10:02:35.283Z","title":"E6 Strömstad–Svinesund","exactlocation":"Nordbymotet (114)–Svinesund","description":"Trafiken leds över på en körbana. Orsaken är rivning av en betalstation.","latitude":59.07704162597656,"longitude":11.24947738647461,"category":0,"subcategory":"Vägarbete"},{"id":1526215,"priority":5,"createddate":"2015-12-08T10:31:18.643Z","title":"Rv 72 Vänge-Kvarnbo","exactlocation":"","description":"Trafiken regleras med ljussignaler på grund av kabelarbete.","latitude":59.85140609741211,"longitude":17.49069595336914,"category":0,"subcategory":"Vägarbete"},{"id":1570769,"priority":3,"createddate":"2015-12-16T14:33:26.167Z","title":"Rv87  Kälarne-Östersund","exactlocation":"","description":"Transport av ett hus 8.75 meter bred. Begränsad framkomlighet","latitude":62.982994079589844,"longitude":16.087919235229492,"category":0,"subcategory":"Trafikstörning"},{"id":1569525,"priority":3,"createddate":"2015-12-14T15:28:03.290Z","title":"Gällivare kommun","exactlocation":"Björkberget, Purno, Sadjem med omnejd","description":"Träd längs kraftledningsgatorna kvistas från helikopter. Risk för fallande grenar och snö.","latitude":66.95740988198193,"longitude":21.30217817235708,"category":3,"subcategory":"Övrigt"},{"id":1563338,"priority":5,"createddate":"2015-12-06T15:10:09.677Z","title":"Lv 815 Fellingsbro-Örebro","exactlocation":"Karltorp","description":"Träd över vägen i riktning mot Örebro","latitude":59.379780734207195,"longitude":15.439994573446493,"category":0,"subcategory":"Trafikstörning"},{"id":1559467,"priority":4,"createddate":"2015-12-16T04:45:46.493Z","title":"Hässleholms kommun","exactlocation":"","description":"Under jul- och nyårshelgen kan sophämtningen avvika från det normala. Sätt därför ut kärl och säckar två dagar innan ordinarie hämtning och låt stå tills de blir tömda.\n","latitude":56.161145514975054,"longitude":13.759663742875192,"category":3,"subcategory":"Övrigt"},{"id":1571110,"priority":4,"createddate":"2015-12-16T14:10:46.440Z","title":"Ljusfallshammar","exactlocation":"","description":"Vattenläcka. Boende från Holmestorpsvägen och norrut mot Örebro drabbade. Brandpost att hämta vatten från finns i korsningen Getryggen/Stånkärrsvägen.","latitude":58.78821856543095,"longitude":15.493889915032055,"category":3,"subcategory":"Vatten"},{"id":1569197,"priority":4,"createddate":"2015-12-16T04:45:47.367Z","title":"Grevie","exactlocation":"Grusåsvägen, Hålarpsvägen, Industrivägen, Järnvägsgatan, Märgelvägen, Skolgatan, Solhemsvägen, Stålhögavägen, Timmervägen, Tvärstigen samt Vårvägen","description":"Vattnet avstängt under onsdagen 13:00-21:00. Vatten finns inte att hämta.","latitude":56.391619632158196,"longitude":12.779162136674726,"category":3,"subcategory":"Vatten"},{"id":1487818,"priority":4,"createddate":"2015-12-16T14:06:38.010Z","title":"Halland","exactlocation":"","description":"Våta vägbanor med risk för påfrysning.","latitude":56.9494667,"longitude":12.8037291,"category":0,"subcategory":"Halkvarning"},{"id":1564938,"priority":4,"createddate":"2015-12-14T06:06:49.717Z","title":"Blodcentralerna","exactlocation":"","description":"Vädjan från blodcentralen om hjälp med att fylla upp blodlagren genom att lämna blod inför kommande helger. Välkommen till de  fasta blodcentralerna eller blodbussar.","latitude":59.32815695796981,"longitude":18.16465430127802,"category":3,"subcategory":"Hälsa och sjukvård"},{"id":1570305,"priority":3,"createddate":"2015-12-15T13:53:27.750Z","title":"Uppsala","exactlocation":"Stationsgatan/Strandbogatan","description":"Vägarbete, stängt för gående och cyklister. ","latitude":59.85644028297933,"longitude":17.653565478384916,"category":0,"subcategory":"Trafikstörning"},{"id":1556757,"priority":5,"createddate":"2015-12-08T11:30:38.383Z","title":"Rv 55 Uppsala-Enköping","exactlocation":"Bärbyleden/Enköpingsvägen","description":"Vägarbete.","latitude":59.855125427246094,"longitude":17.592878341674805,"category":0,"subcategory":"Vägarbete"}],"pagination":{"page":1,"size":100,"totalhits":114,"totalpages":2,"nextpage":"http://api.sr.se/api/v2/traffic/messages?size=100&format=json&page=2"},"meta":{"time":1450278858783,"bestBefore":1450279158783}}