{"copyright":"Copyright Sveriges Radio 2015. All rights reserved.","messages":[{"id":1569263,"priority":3,"createddate":"2015-12-14T11:19:54.477Z","title":"E45 Malmberget-Jokkmokk","exactlocation":"Porjus-Hapsas ","description":"","latitude":66.98383331298828,"longitude":19.83392333984375,"category":0,"subcategory":"Vägarbete"},{"id":1539416,"priority":5,"createddate":"2015-11-17T12:43:00.897Z","title":"Rv 84 Sörsforsa-Delsbo","exactlocation":"Vid avfarten Näsviken","description":"","latitude":61.74943542480469,"longitude":16.835500717163086,"category":0,"subcategory":"Vägarbete"},{"id":1569959,"priority":3,"createddate":"2015-12-15T08:28:32.580Z","title":"Västra Frölunda","exactlocation":"Järnbrottsmotet","description":" Belysningsarbete pågår, arbetsfordon finns i anlsutning av arbetet på vägbanan.\n","latitude":57.647212982177734,"longitude":11.920160293579102,"category":0,"subcategory":"Vägarbete"},{"id":1263776,"priority":3,"createddate":"2015-12-14T14:58:25.127Z","title":"Örebro län ","exactlocation":"","description":" Risk för lokal frosthalka","latitude":59.4352722,"longitude":14.7333231,"category":0,"subcategory":"Halkvarning"},{"id":1569038,"priority":4,"createddate":"2015-12-14T06:04:21.887Z","title":"Blodbussen","exactlocation":"Grafiska Vägen 16 . Står på parkeringen till ICA Maxi vid Mölndalsvägen\n","description":"14-15 december. Öppet mellan 08:30-15:00.","latitude":57.68117232330807,"longitude":12.002808285787475,"category":3,"subcategory":"Hälsa och sjukvård"},{"id":1407249,"priority":5,"createddate":"2015-07-20T08:57:37.240Z","title":"Rv 55 Uppsala","exactlocation":"Tpl Tycho Hedéns väg","description":"Arbete med att bygga en ny järnvägsbro över Tycho Hedéns väg. Begränsad höjd är 3,2 meter.","latitude":59.87918472290039,"longitude":17.634679794311523,"category":0,"subcategory":"Vägarbete"},{"id":1483398,"priority":3,"createddate":"2015-11-18T07:09:10.287Z","title":"Lv 282 Uppsala Almungevägen","exactlocation":"Mellan brandstationen och E4","description":"Arbete på vägen. Risk för köbildning även ut på E4 vid trafikplats Kumla.","latitude":59.84631644520587,"longitude":17.720024407748333,"category":0,"subcategory":"Vägarbete"},{"id":1569579,"priority":3,"createddate":"2015-12-14T16:43:14.247Z","title":"E4 Huskvarna","exactlocation":"Huskvarna Södra (100), södergående riktning","description":"Avfarten avstängd under tisdagen kl. 8-15 pga ett akut broarbete. ","latitude":57.787662506103516,"longitude":14.257363319396973,"category":0,"subcategory":"Vägarbete"},{"id":1553125,"priority":4,"createddate":"2015-11-26T14:23:34.650Z","title":"Mora","exactlocation":"Fridhemsgatan","description":"Avstängd mellan Moragatan och Oxbergsvägen. Omledning uppskyltad.","latitude":61.002901588480924,"longitude":14.535675134854968,"category":0,"subcategory":"Vägarbete"},{"id":1551339,"priority":3,"createddate":"2015-12-11T08:42:41.427Z","title":"Lv 864 Danholn-Sundborn","exactlocation":"Överbackavägen","description":"Avstängt från 26/11 ca kl. 11:00. Pga arbeten med vatten och avlopp.","latitude":60.623680114746094,"longitude":15.79430103302002,"category":0,"subcategory":"Vägarbete"},{"id":1497351,"priority":3,"createddate":"2015-12-09T13:46:23.383Z","title":"Lv 120 Delary–Älmhult","exactlocation":"","description":"Begränsad framkomlighet förbi arbetet. Endast ett körfält öppet förbi så trafiken får köra växelvis. Risk för långa köer. ","latitude":56.549530029296875,"longitude":14.026314735412598,"category":0,"subcategory":"Vägarbete"},{"id":1439931,"priority":3,"createddate":"2015-12-02T08:21:38.187Z","title":"E20 Strängnäs","exactlocation":"Tpl Biskopskvarn (137)- tpl Lunda (136), mot Eskilstuna","description":"Begränsad framkomlighet. Bygge av järnvägsbro över E20. ","latitude":59.365291595458984,"longitude":16.964046478271484,"category":0,"subcategory":"Vägarbete"},{"id":1484713,"priority":3,"createddate":"2015-11-27T08:29:41.103Z","title":"E22 Söderköping","exactlocation":"Östra Rydsvägen–tpl Klevbrinken i riktning mot Norrköping","description":"Begränsad framkomlighet. Byggnation av en ny gång- och cykelväg.","latitude":58.483070373535156,"longitude":16.312185287475586,"category":0,"subcategory":"Vägarbete"},{"id":1557116,"priority":3,"createddate":"2015-12-11T16:13:58.837Z","title":"Lv 240 Molkom-Hagfors","exactlocation":"Fösked-Älvsbacka","description":"Begränsad framkomlighet. Diknings- och dräneringsarbete.","latitude":59.67658996582031,"longitude":13.683475494384766,"category":0,"subcategory":"Vägarbete"},{"id":1513371,"priority":3,"createddate":"2015-11-26T10:27:40.523Z","title":"E22 Kalmar–Karlskrona","exactlocation":"tpl Ljungbyholm–Hossmo i riktning mot Karlskrona","description":"Begränsad framkomlighet. Körfält avstängt vid arbetsplats för byggnation av nya väg E22","latitude":56.63808059692383,"longitude":16.222171783447266,"category":0,"subcategory":"Vägarbete"},{"id":1508092,"priority":5,"createddate":"2015-10-06T03:53:20.370Z","title":"Lv 241 från Sunne-Lerdalen","exactlocation":"","description":"Beläggningsarbete.","latitude":59.83991622924805,"longitude":13.188547134399414,"category":0,"subcategory":"Vägarbete"},{"id":1569151,"priority":4,"createddate":"2015-12-14T08:00:56.953Z","title":"Områdena kring Ödeshög och Boxholm","exactlocation":"","description":"Besiktning av elledningar med lågt flygande helikopter. Hästar och andra djur kan bli skrämda. Pågår 14–18 dec.","latitude":58.234752616257076,"longitude":14.649525213170689,"category":3,"subcategory":"Buller"},{"id":1568988,"priority":4,"createddate":"2015-12-15T08:24:02.657Z","title":"Kävlinge","exactlocation":"Vid vårdcentralen","description":"Blodbussen på plats 13:00-15:00 och 16:15-19:00.","latitude":55.79545027578535,"longitude":13.103467406810735,"category":3,"subcategory":"Hälsa och sjukvård"},{"id":1534135,"priority":3,"createddate":"2015-12-08T05:14:24.123Z","title":"Lv 660 Norrberge-Midlanda","exactlocation":"Bron över Indalsälven","description":"Bron är avstängd. Trafik hänvisas via E4","latitude":62.51906967163086,"longitude":17.42425537109375,"category":0,"subcategory":"Vägarbete"},{"id":1559533,"priority":3,"createddate":"2015-12-03T09:39:12.837Z","title":"Lv 541 Hassel-Lucksta","exactlocation":"","description":"Byte av vägtrumma. ","latitude":62.273338317871094,"longitude":16.879863739013672,"category":0,"subcategory":"Vägarbete"},{"id":1569698,"priority":3,"createddate":"2015-12-15T05:13:19.603Z","title":"E4 Uppsalavägen","exactlocation":"Södergående efter påfarten från Kista (171)","description":"Början av kollektivfilen avstängd strax efter påfarten.","latitude":59.399009704589844,"longitude":17.97714614868164,"category":0,"subcategory":"Vägarbete"},{"id":1544476,"priority":3,"createddate":"2015-11-16T10:09:05.113Z","title":"Rv 55 Strängnäs-Enköping","exactlocation":"Hjulstabron-cirkulationsplats Enögla riktning mot Uppsala","description":"Dikning. Rörligt arbete.","latitude":59.518310546875,"longitude":17.004179000854492,"category":0,"subcategory":"Vägarbete"},{"id":1570037,"priority":3,"createddate":"2015-12-15T08:53:41.377Z","title":"Rv 31 Nybro–Vetlanda","exactlocation":"Vid Nottebäckskrysset","description":"En lastbil blockerar en stor del av vägbanan efter en mindre kollision med en kranbil. Trafikanter som kommer från Vetlandahållet har solen i ögonen.","latitude":57.089889401735526,"longitude":15.187966289631202,"category":0,"subcategory":"Trafikolycka"},{"id":1569834,"priority":3,"createddate":"2015-12-15T05:48:25.823Z","title":"Lv 653 Fridhem–Esmared","exactlocation":"","description":"En lastbil har fastnat på vägen som just nu är omledningsväg för bilar.","latitude":56.76933649373792,"longitude":13.260898157038701,"category":0,"subcategory":"Trafikstörning"},{"id":1570055,"priority":3,"createddate":"2015-12-15T09:08:55.560Z","title":"Rv 23 Växjö–Älmhult","exactlocation":"Strax innan Huseby, mot Älmhult","description":"En lastbil har kört ner med släpet i diket. Släpet har vält och ekipaget blockerar delar av vägbanan.","latitude":56.783304290245674,"longitude":14.60412823564153,"category":0,"subcategory":"Trafikolycka"},{"id":1570064,"priority":3,"createddate":"2015-12-15T09:25:43.617Z","title":"Uppsala-Gävle","exactlocation":"","description":"Enkelspårsdrift mellan Uppsala-Storvreta pga lokskada, Risk för förseningar. ","latitude":60.08942017297459,"longitude":17.529828166470136,"category":1,"subcategory":"Tåg"},{"id":1566793,"priority":3,"createddate":"2015-12-10T14:20:48.790Z","title":"E4 tpl Sörberge (233) i riktning mot Umeå","exactlocation":"","description":"Ett avstängt körfält.","latitude":62.516319274902344,"longitude":17.391677856445312,"category":0,"subcategory":"Vägarbete"},{"id":1557249,"priority":3,"createddate":"2015-12-02T04:50:07.503Z","title":"E4 Nyköping-Norrköping","exactlocation":"Trafikplats Gammelsta (128), i riktning mot Norrköping.","description":"Ett körfält avstängt. ","latitude":58.753318786621094,"longitude":16.547788619995117,"category":0,"subcategory":"Vägarbete"},{"id":1511540,"priority":4,"createddate":"2015-12-15T02:11:21.187Z","title":"Uppsala län","exactlocation":"","description":"Fortsatt risk för lokal frosthalka. ","latitude":59.96126,"longitude":17.78068,"category":0,"subcategory":"Halkvarning"},{"id":1511539,"priority":4,"createddate":"2015-12-15T02:11:29.550Z","title":"Västmanlands län ","exactlocation":"","description":"Fortsatt risk för lokal frosthalka.","latitude":59.946888,"longitude":16.2786083,"category":0,"subcategory":"Halkvarning"},{"id":1570032,"priority":3,"createddate":"2015-12-15T09:09:45.293Z","title":"Rv 40 Eksjö–Mariannelund","exactlocation":"Eksjö–Hult","description":"Fräsnings- och asfalteringsarbete pågår under tisdagsförmiddagen.","latitude":57.64896011352539,"longitude":15.053228378295898,"category":0,"subcategory":"Vägarbete"},{"id":1557682,"priority":3,"createddate":"2015-12-15T04:51:10.383Z","title":"Lv 891 Skenäsfärjan ","exactlocation":"","description":"Färjan står still tisd 15/12 till torsd 17/12 08:30–16:00. Orsaken är att dykare finns i vattnet i samband med bojarbete. ","latitude":58.638118743896484,"longitude":16.59667205810547,"category":1,"subcategory":"Färja"},{"id":1568482,"priority":3,"createddate":"2015-12-15T05:28:41.237Z","title":"Röduppleden","exactlocation":"","description":"Färjan är inställd. Ingen isväg i nuläget.","latitude":66.48563385009766,"longitude":22.77780532836914,"category":1,"subcategory":"Färja"},{"id":1521191,"priority":3,"createddate":"2015-11-10T10:33:20.150Z","title":"Magnus Ladulåsgatan mot Rosenlundsgatan","exactlocation":"Mellan Västgötagatan och Swedenborgsgatan","description":"Gatan enkelriktad mot Rosenlundsgatan från Västgötagatan till Swedenborgsgatan. Schakt för fjärrvärme. ","latitude":59.31259536743164,"longitude":18.066604614257812,"category":0,"subcategory":"Vägarbete"},{"id":1554578,"priority":3,"createddate":"2015-11-30T07:23:35.437Z","title":"Lv 316 Vemdalen-Åsarna","exactlocation":"Klövsjö","description":"Grävarbeten och nedläggning av kabel.  ","latitude":62.503658294677734,"longitude":14.200440406799316,"category":0,"subcategory":"Vägarbete"},{"id":1557011,"priority":3,"createddate":"2015-12-14T18:02:24.493Z","title":"Visingsö–Gränna","exactlocation":"","description":"Går enligt tidtabell.","latitude":58.03407287597656,"longitude":14.349037170410156,"category":1,"subcategory":"Färja"},{"id":1569989,"priority":3,"createddate":"2015-12-15T08:03:26.303Z","title":"Hallens Hälsocentral","exactlocation":"","description":"Hallens Hälsocentral stängd onsdag 16 december. Patienter hänvisas då till Järpens Hälsocentral.\n","latitude":63.17585448053719,"longitude":14.089107507145268,"category":3,"subcategory":"Hälsa och sjukvård"},{"id":1565286,"priority":3,"createddate":"2015-12-08T15:18:37.697Z","title":"Valhallavägen","exactlocation":"Mellan Surbrunnsgatan och Frejgatan","description":"Höger körfält avstängt på grund av vägarbete.","latitude":59.34732437133789,"longitude":18.065418243408203,"category":0,"subcategory":"Vägarbete"},{"id":1570083,"priority":3,"createddate":"2015-12-15T09:39:40.473Z","title":"Lv 190  båda riktningarna i Västra Götalands län (O)","exactlocation":"Från Bergsjövägen till Angereds kyrka i båda riktningar","description":"I höjd med Gunnilse pågår schakt i diket. Vägarbetsfordon finns i vägområdet.","latitude":57.78675842285156,"longitude":12.092743873596191,"category":0,"subcategory":"Vägarbete"},{"id":1569166,"priority":3,"createddate":"2015-12-15T07:53:51.467Z","title":"Knivsta kommun","exactlocation":"","description":"Just nu går det inte att ringa till Knivsta kommuns växelnummer på grund av ett tekniskt problem. Felsökning pågår.  Direktnummer till alla verksamheter fungerar som vanligt.","latitude":59.72753219980294,"longitude":17.794585111801954,"category":3,"subcategory":"Tele och data"},{"id":1569804,"priority":3,"createddate":"2015-12-15T09:20:07.443Z","title":"E10  Björkliden-Riksgränsen","exactlocation":"","description":"Kolonnkörning på norska sidan på grund av bärgning och vädret.","latitude":68.42720794677734,"longitude":18.4401912689209,"category":0,"subcategory":"Trafikstörning"},{"id":1534043,"priority":3,"createddate":"2015-11-16T16:15:00.393Z","title":"E22 Gusum–Ringarum","exactlocation":"","description":"Kortare omledning på en tillfällig väg. Byte av rörbro.","latitude":58.30965805053711,"longitude":16.483673095703125,"category":0,"subcategory":"Vägarbete"},{"id":1442001,"priority":3,"createddate":"2015-11-18T04:56:21.000Z","title":"Lv 156 Skene","exactlocation":"Korsningen Varbergsvägen/Örbyvägen","description":"Körfält avstängt. Arbetsfordon finns på vägbanan. Arbete med att bredda vägen. ","latitude":57.48634338378906,"longitude":12.646737098693848,"category":0,"subcategory":"Vägarbete"},{"id":1567592,"priority":3,"createddate":"2015-12-11T15:53:00.070Z","title":"E6 av-/påfart från Bällskärsvägen, E6 (Tpl Tingstadsmotet) till E6.21 (Tpl Ringömotet) i Göteborg kommun","exactlocation":"Av-/påfart från Bällskärsvägen, Tingstadsmotet, södergående","description":"Körfält stängs av i samband med schaktningsarbeten.","latitude":57.73060607910156,"longitude":11.983270645141602,"category":0,"subcategory":"Vägarbete"},{"id":1406672,"priority":3,"createddate":"2015-12-11T16:28:08.547Z","title":"E20 Partille–Lerum","exactlocation":"Jerikotunneln–Fräntorpsmotet(78)","description":"Körfält stängs av nattetid på grund av asfalteringsarbete.","latitude":57.74127197265625,"longitude":12.185935974121094,"category":0,"subcategory":"Vägarbete"},{"id":1567569,"priority":3,"createddate":"2015-12-11T15:50:30.527Z","title":"E6 vid Ringömotet","exactlocation":"Södergående","description":"Körfältsavstängning i samband med ombyggnadsarbete.\n","latitude":57.72996520996094,"longitude":11.982913970947266,"category":0,"subcategory":"Vägarbete"},{"id":1566765,"priority":3,"createddate":"2015-12-11T15:51:21.740Z","title":"Härryda-Bollebyggd","exactlocation":"Härryda kyrka-Björredsmotet (76)","description":"Ledningsarbete i riktning mot Göteborg.","latitude":57.690269470214844,"longitude":12.278976440429688,"category":0,"subcategory":"Vägarbete"},{"id":1510364,"priority":4,"createddate":"2015-12-15T04:42:20.497Z","title":"Jönköpings län","exactlocation":"","description":"Minusgrader i vägarna och risk för lokal frosthalka.","latitude":57.47894,"longitude":14.3679695,"category":0,"subcategory":"Halkvarning"},{"id":1511541,"priority":4,"createddate":"2015-12-15T04:42:48.933Z","title":"Östergötlands län","exactlocation":"","description":"Minusgrader i vägarna och risk för lokal frosthalka.","latitude":58.3364258,"longitude":15.6248283,"category":0,"subcategory":"Halkvarning"},{"id":1557082,"priority":3,"createddate":"2015-11-30T14:06:09.050Z","title":"E16 Kungsgården-Sandviken","exactlocation":"Mellan tpl Åsen och tpl Sandviken Västra i riktning mot Sandviken","description":"Montering av fundament för elstolpar.","latitude":60.60951232910156,"longitude":16.647851943969727,"category":0,"subcategory":"Vägarbete"},{"id":1569448,"priority":3,"createddate":"2015-12-14T13:44:07.180Z","title":"Linje 25 och 753","exactlocation":"Mölndal–Fässbergshemmet","description":"Ny hållplats har tagits ibruk, den gamla finns inte längre.","latitude":57.665275477310566,"longitude":11.991200435822456,"category":1,"subcategory":"Buss"},{"id":1546988,"priority":3,"createddate":"2015-11-19T06:04:56.053Z","title":"Rv 61 Åmotsfors-Charlottenberg","exactlocation":"Dalen till Solhem ","description":"Ombyggnad till 2+1 väg.","latitude":59.78485870361328,"longitude":12.354942321777344,"category":0,"subcategory":"Vägarbete"},{"id":1569595,"priority":3,"createddate":"2015-12-15T04:46:01.447Z","title":"Väring, Tidan, Moholm","exactlocation":"","description":"Risk för buller från helikopter som flyger över kraftledningarna. Berör även Kullåsen, Horn, Käckestad och Hjälstad.","latitude":58.51312726746378,"longitude":13.96402107143415,"category":3,"subcategory":"Buller"},{"id":1569961,"priority":3,"createddate":"2015-12-15T07:41:10.357Z","title":"E22 Sölvesborg","exactlocation":"Valje–Listerlandet i båda riktningar","description":"Risk för köer. Långsamma fordon på körbanan.","latitude":56.065185546875,"longitude":14.58601188659668,"category":0,"subcategory":"Vägarbete"},{"id":1510365,"priority":4,"createddate":"2015-12-15T08:22:39.433Z","title":"Skåne län","exactlocation":"","description":"Risk för lokal frosthalka","latitude":55.88818,"longitude":13.6161013,"category":0,"subcategory":"Halkvarning"},{"id":1487819,"priority":3,"createddate":"2015-12-14T14:22:34.327Z","title":"Värmlands län","exactlocation":"","description":"Risk för lokal frosthalka.","latitude":59.8638344,"longitude":13.2893448,"category":0,"subcategory":"Halkvarning"},{"id":1510363,"priority":4,"createddate":"2015-12-15T08:22:25.207Z","title":"Blekinge län","exactlocation":"","description":"Risk för lokal frosthalka.","latitude":56.3117943,"longitude":15.2829609,"category":0,"subcategory":"Halkvarning"},{"id":1487662,"priority":4,"createddate":"2015-12-14T04:26:13.990Z","title":"Dalarnas län","exactlocation":"  ","description":"Risk för lokal frosthalka. ","latitude":60.7344055,"longitude":14.7284212,"category":0,"subcategory":"Halkvarning"},{"id":1487657,"priority":4,"createddate":"2015-12-11T16:30:49.117Z","title":"Gävleborgs län","exactlocation":"","description":"Risk för lokal frosthalka.","latitude":61.4704742,"longitude":16.70279,"category":0,"subcategory":"Halkvarning"},{"id":1505778,"priority":4,"createddate":"2015-12-11T05:31:14.517Z","title":"Jämtlands län","exactlocation":"  ","description":"Risk för lokal frosthalka.","latitude":63.4809952,"longitude":14.326333,"category":0,"subcategory":"Halkvarning"},{"id":1569806,"priority":3,"createddate":"2015-12-15T05:11:26.163Z","title":"Gotland","exactlocation":"","description":"Risk för lokal ishalka","latitude":57.24246271966427,"longitude":18.3743200939531,"category":0,"subcategory":"Halkvarning"},{"id":1569228,"priority":3,"createddate":"2015-12-15T04:42:17.640Z","title":"Västra Götalands län","exactlocation":"","description":"Runt noll eller minusgrader i vägarna och risk för halka.","latitude":58.39404430131129,"longitude":13.873498995071923,"category":0,"subcategory":"Halkvarning"},{"id":1569515,"priority":4,"createddate":"2015-12-14T15:16:37.503Z","title":"Östergötland","exactlocation":"","description":"Röjningsarbete pågår fortfarande efter stormen Helga. Allmänheten uppmanas att vara uppmärksam och undvika elledningar och stolpar som ligger på marken. Om man gör några observationer av trasiga anläggningar kontakta Vattenfall Eldistributions felanmälan på telefon 020-82 58 58.  ","latitude":58.24989990721928,"longitude":15.799687786892436,"category":3,"subcategory":"El"},{"id":1569836,"priority":4,"createddate":"2015-12-15T10:01:17.627Z","title":"Norra Skåne","exactlocation":"","description":"Rör inte elledningar som hänger lågt eller ligger på marken. Ring till E.ons felanmälan 020-88 00 22 och rapportera.","latitude":56.06314764536058,"longitude":13.857516324200596,"category":3,"subcategory":"El"},{"id":1539616,"priority":5,"createddate":"2015-11-16T16:19:20.343Z","title":"Lv 873 i Kiruna ","exactlocation":"","description":"Schaktning för ny vattenledning för nya stadskärnan. Schaktningsarbetet kommer att ske i vägmitt.","latitude":67.84821319580078,"longitude":20.291839599609375,"category":0,"subcategory":"Vägarbete"},{"id":1570097,"priority":3,"createddate":"2015-12-15T10:02:29.513Z","title":"Lv 1102 Edebo Kyrka-Hallstavik","exactlocation":"Häverövägen","description":"Singelolycka påverkar båda riktningar.","latitude":60.01399230957031,"longitude":18.590076446533203,"category":0,"subcategory":"Trafikolycka"},{"id":1570094,"priority":3,"createddate":"2015-12-15T09:44:33.880Z","title":"Västerbottens län","exactlocation":"Södra Lapplandsfjällen","description":"SMHI klass 1 varning: Under främst natten frisk till hård västlig vind, 14-20 m/s. Detta kombinerat med snöfall och snödrev. \n","latitude":65.84558755348331,"longitude":15.286620407299422,"category":3,"subcategory":"Väder"},{"id":1563801,"priority":2,"createddate":"2015-12-14T12:29:17.243Z","title":"Örebro-Borlänge/Falun/Gävle/Mjölby/Lindesberg","exactlocation":"Frövi","description":"Stopp för tågtrafik mellan Skinnskatteberg och Örebro pga godståg som spårat ut vid Frövi. Vissa av avgångarna som passerar Frövi går bara delsträckor, andra ersätts med buss och vissa avgångar ställs in helt. Kolla med tditt tågbolag vad som gäller just för din avgång. ","latitude":59.465029844507576,"longitude":15.366200419183267,"category":1,"subcategory":"Tåg"},{"id":1510140,"priority":3,"createddate":"2015-12-15T05:01:11.663Z","title":"Västra Götalands län","exactlocation":"","description":"Stor risk för mycket hala vägar på grund av återfrysning.","latitude":58.0697441,"longitude":12.3502855,"category":0,"subcategory":"Halkvarning"},{"id":1481993,"priority":3,"createddate":"2015-09-23T13:26:56.513Z","title":"Rv 23 Växjö","exactlocation":"Korsningen Stora Räppevägen/Norrleden","description":"Stundtals köer. Byggnation av gång- och cykelport.","latitude":56.869258880615234,"longitude":14.73924732208252,"category":0,"subcategory":"Vägarbete"},{"id":1515180,"priority":3,"createddate":"2015-11-24T10:39:01.940Z","title":"Rv 32 Tranås-Sommen","exactlocation":"","description":"Södergående trafik leds av vid Tenbäcken och kör gamla vägen till Tranås. Norrgående trafik passerar på rv 32 som vanligt, begränsad framkomlighet där. Omledningen beräknas gälla fram till jul. Vägen byggs om till 2+1-väg ","latitude":58.06538772583008,"longitude":14.95679759979248,"category":0,"subcategory":"Vägarbete"},{"id":1546358,"priority":5,"createddate":"2015-11-29T18:42:10.847Z","title":"Midvägen Östersund","exactlocation":"","description":"Till följd av ökad obehörig trafik vid Lugnvikskolan stängs Midvägen av för trafik mellan 07.00-17.00. Under den tiden får endast fordon i linjetrafik samt fordon med rörelsehindrad person som innehar parkeringstillstånd färdas på vägen.","latitude":63.205564994924174,"longitude":14.630246761853261,"category":0,"subcategory":"Trafikstörning"},{"id":1567473,"priority":4,"createddate":"2015-12-15T06:36:23.857Z","title":"Uppsala","exactlocation":"","description":"Tisdag 15/12 står Blodbussen vid simhallen i Bålsta, kl. 14-19.","latitude":59.944871263050594,"longitude":17.71628648780889,"category":3,"subcategory":"Hälsa och sjukvård"},{"id":1566776,"priority":4,"createddate":"2015-12-15T05:06:39.987Z","title":"Stockholm","exactlocation":"\n","description":"Tisdag 15/12: Stockholms Universitet Universitetsvägen 9, Alkärrsplan Nynäshamn Centralgatan 15, Riksbanken Malmskillnadsgatan 1-7 City, Glashuset Norra Stationsgatan 69 Vasastan, Hästsportens hus Solvalla Travbaneplan Bromma.","latitude":59.32177757681305,"longitude":17.99700012683626,"category":3,"subcategory":"Hälsa och sjukvård"},{"id":1562926,"priority":3,"createddate":"2015-12-09T05:16:34.460Z","title":"Rv 55 Uppsala–Enköping","exactlocation":"Litslena - tpl Annelund (143) i riktning mot Strängnäs ","description":"Trafiken leds med signal eller vakt. ","latitude":59.66455841064453,"longitude":17.266510009765625,"category":0,"subcategory":"Vägarbete"},{"id":1557988,"priority":3,"createddate":"2015-12-01T10:02:35.283Z","title":"E6 Strömstad–Svinesund","exactlocation":"Nordbymotet (114)–Svinesund","description":"Trafiken leds över på en körbana. Orsaken är rivning av en betalstation.","latitude":59.07704162597656,"longitude":11.24947738647461,"category":0,"subcategory":"Vägarbete"},{"id":1526215,"priority":5,"createddate":"2015-12-08T10:31:18.643Z","title":"Rv 72 Vänge-Kvarnbo","exactlocation":"","description":"Trafiken regleras med ljussignaler på grund av kabelarbete.","latitude":59.85140609741211,"longitude":17.49069595336914,"category":0,"subcategory":"Vägarbete"},{"id":1570059,"priority":3,"createddate":"2015-12-15T09:17:32.267Z","title":"Rv 55 Uppsala-Örsundsbro","exactlocation":"Strax efter Stenhagen, vid Kvarnbolund","description":"Trafikolycka med personbil och lastbil. Begränsad framkomlighet.","latitude":59.845863484226875,"longitude":17.552901103794074,"category":0,"subcategory":"Trafikolycka"},{"id":1570028,"priority":3,"createddate":"2015-12-15T09:11:15.837Z","title":"E16 Borlänge-Falun","exactlocation":"Innan möbelaffären, mot Falun","description":"Trafikolycka. ","latitude":60.582630991766784,"longitude":15.61011502160544,"category":0,"subcategory":"Trafikolycka"},{"id":1570024,"priority":3,"createddate":"2015-12-15T08:45:39.000Z","title":"E6 Helsingborg–Halmstad","exactlocation":"Tpl Vasatorp (29)–Ö Karup (39) norrgående","description":"Trångt att passera när vägskador lagas.","latitude":56.061683654785156,"longitude":12.782244682312012,"category":0,"subcategory":"Vägarbete"},{"id":1569525,"priority":3,"createddate":"2015-12-14T15:28:03.290Z","title":"Gällivare kommun","exactlocation":"Björkberget, Purno, Sadjem med omnejd","description":"Träd längs kraftledningsgatorna kvistas från helikopter. Risk för fallande grenar och snö.","latitude":66.95740988198193,"longitude":21.30217817235708,"category":3,"subcategory":"Övrigt"},{"id":1563338,"priority":5,"createddate":"2015-12-06T15:10:09.677Z","title":"Lv 815 Fellingsbro-Örebro","exactlocation":"Karltorp","description":"Träd över vägen i riktning mot Örebro","latitude":59.379780734207195,"longitude":15.439994573446493,"category":0,"subcategory":"Trafikstörning"},{"id":1569916,"priority":3,"createddate":"2015-12-15T08:27:45.047Z","title":"E20 Alingsås","exactlocation":"","description":"Upprensning efter stormen. Vägarbetsfordon rör sig i vägområdet.","latitude":57.927040100097656,"longitude":12.545405387878418,"category":0,"subcategory":"Vägarbete"},{"id":1569569,"priority":3,"createddate":"2015-12-15T05:13:28.000Z","title":"Härnösands kommun","exactlocation":"Häggdånger","description":"Vattnet stängs av tisdag 15 december 08:00. Vattentank ställs ut vid skolan.","latitude":62.54077156535514,"longitude":17.81879798024147,"category":3,"subcategory":"Vatten"},{"id":1569397,"priority":3,"createddate":"2015-12-14T12:45:30.517Z","title":"E45 Åmål","exactlocation":"","description":"Vid järnvägsövergång söder om Åmål pågår asfalteringsarbeten. Flaggvakter.","latitude":59.037261962890625,"longitude":12.671897888183594,"category":0,"subcategory":"Vägarbete"},{"id":1564938,"priority":4,"createddate":"2015-12-14T06:06:49.717Z","title":"Blodcentralerna","exactlocation":"","description":"Vädjan från blodcentralen om hjälp med att fylla upp blodlagren genom att lämna blod inför kommande helger. Välkommen till de  fasta blodcentralerna eller blodbussar.","latitude":59.32815695796981,"longitude":18.16465430127802,"category":3,"subcategory":"Hälsa och sjukvård"},{"id":1530106,"priority":3,"createddate":"2015-10-28T09:56:42.917Z","title":"Rv 87 Stugun","exactlocation":"","description":"Vägarbete genom Stugun. TMA-bil på vägen. Rör sig personer på vägbanan. ","latitude":63.16762924194336,"longitude":15.618271827697754,"category":0,"subcategory":"Vägarbete"},{"id":1556757,"priority":5,"createddate":"2015-12-08T11:30:38.383Z","title":"Rv 55 Uppsala-Enköping","exactlocation":"Bärbyleden/Enköpingsvägen","description":"Vägarbete.","latitude":59.855125427246094,"longitude":17.592878341674805,"category":0,"subcategory":"Vägarbete"},{"id":1569436,"priority":3,"createddate":"2015-12-14T14:25:53.960Z","title":"Lv 153 Ullared","exactlocation":"","description":"Vägarbete. Kan vara trångt att passera.","latitude":57.13759994506836,"longitude":12.710490226745605,"category":0,"subcategory":"Vägarbete"},{"id":1569186,"priority":3,"createddate":"2015-12-14T08:53:25.857Z","title":"Lv 614 Lagan","exactlocation":"Åbyforsvägen, vid bron över Lagan","description":"Vägen avstängd pga broarbete. Följ orange vägvisning.","latitude":56.91180419921875,"longitude":13.991808891296387,"category":0,"subcategory":"Vägarbete"},{"id":1542094,"priority":3,"createddate":"2015-11-27T10:10:42.497Z","title":"Borås","exactlocation":"Åsbogatan, mellan Kungsleden och Allégatan","description":"Vägen avstängd pga byggnation av bussfil.","latitude":57.719811893090274,"longitude":12.943832949851924,"category":0,"subcategory":"Vägarbete"},{"id":1564907,"priority":3,"createddate":"2015-12-14T18:02:56.253Z","title":"Lv 1541 Mjöbäck–Mårdaklev ","exactlocation":"","description":"Vägen avstängd tills vidare. Reparationsarbete efter översvämningsskador.","latitude":57.29132080078125,"longitude":12.942523002624512,"category":0,"subcategory":"Trafikstörning"},{"id":1537497,"priority":5,"createddate":"2015-11-29T18:41:46.417Z","title":"Lv 1019 vid Storulvån båda riktningarna","exactlocation":"","description":"Vägen till Storulvån är vinterstängd mellan 1/11 - 31/1.","latitude":63.21542739868164,"longitude":12.406817436218262,"category":0,"subcategory":"Trafikstörning"},{"id":1566630,"priority":3,"createddate":"2015-12-10T10:27:21.087Z","title":"Göteborg–Gamlestadsvägen ","exactlocation":"Mellan Slakthusgatan och Väg 190","description":"Vägen är stängd strax efter Alelyckans köpcenter. Det går att välja intilliggande Lärjeågatan som allternativ.\n","latitude":57.755306243896484,"longitude":12.010954856872559,"category":0,"subcategory":"Vägarbete"},{"id":1558430,"priority":4,"createddate":"2015-12-04T19:36:02.383Z","title":"Lv 531 Funäsdalen-Ljungdalen ","exactlocation":"Från Mittådalen till Ljungdalen ","description":"Vägen över Flatruet är nattstängd mellan klockan 22:00-06:00 under perioden 1 December-15 April. Vid besvärligt väder kan vägen stängas med kort varsel även under annan tid.","latitude":62.77565383911133,"longitude":12.765754699707031,"category":0,"subcategory":"Trafikstörning"},{"id":1569870,"priority":3,"createddate":"2015-12-15T06:37:01.230Z","title":"E45 Torsby","exactlocation":"Vid södra infarten","description":"Älg vid vägen.","latitude":60.116822813492284,"longitude":13.015534769484429,"category":0,"subcategory":"Trafikstörning"},{"id":1569948,"priority":3,"createddate":"2015-12-15T07:32:27.843Z","title":"Rv 70 Avesta","exactlocation":"Vid Dalälven","description":"Älgar vid vägen.","latitude":60.134058352007344,"longitude":16.26686145665446,"category":0,"subcategory":"Trafikstörning"},{"id":1570092,"priority":3,"createddate":"2015-12-15T09:38:34.097Z","title":"Tärnaby","exactlocation":"","description":"Just nu går det inte att lyssna på Sveriges Radio, P1, P2, P3, P4 pga kraftavbrott. Beräknas vara klart 12:30. ","latitude":65.71004780546765,"longitude":15.26886048671045,"category":3,"subcategory":"Övrigt"},{"id":1558549,"priority":4,"createddate":"2015-12-02T14:02:41.027Z","title":"Umeå, Umeälven","exactlocation":"Vid järnvägsbron mellan Bergsboda och Stor-Sandskär","description":"Isränna bryts så fort isen lägger sig. Isrännan kvarstår december ut.  ","latitude":63.76707632042192,"longitude":20.32501859948121,"category":3,"subcategory":"Övrigt"},{"id":1510366,"priority":3,"createddate":"2015-12-15T04:48:03.650Z","title":"Kalmar län","exactlocation":"","description":"Minusgrader i vägarna och risk för lokal frosthalka.","latitude":56.8659172,"longitude":15.9477434,"category":0,"subcategory":"Halkvarning"}],"pagination":{"page":1,"size":100,"totalhits":116,"totalpages":2,"nextpage":"http://api.sr.se/api/v2/traffic/messages?size=100&format=json&page=2"},"meta":{"time":1450174227417,"bestBefore":1450174527417}}