{"copyright":"Copyright Sveriges Radio 2015. All rights reserved.","messages":[{"id":1568764,"priority":3,"createddate":"/Date(1450026717830+0100)/","title":"Rv 23 Hässleholm-Osby","exactlocation":"Mellan avfarterna till Broby och Östanå","description":"","latitude":56.28898247231642,"longitude":14.007218896633384,"category":0,"subcategory":"Trafikolycka"},{"id":1568648,"priority":3,"createddate":"/Date(1450013858723+0100)/","title":"Uddevalla","exactlocation":"Herrestarakan X vid IKEA","description":"","latitude":58.35041046142578,"longitude":11.829156875610352,"category":0,"subcategory":"Trafikstörning"},{"id":1539416,"priority":5,"createddate":"/Date(1447764180897+0100)/","title":"Rv 84 Sörsforsa-Delsbo","exactlocation":"Vid avfarten Näsviken","description":"","latitude":61.74943542480469,"longitude":16.835500717163086,"category":0,"subcategory":"Vägarbete"},{"id":1263776,"priority":3,"createddate":"/Date(1449851342583+0100)/","title":"Örebro län ","exactlocation":"","description":" Risk för lokal frosthalka under kväll och natt. ","latitude":59.4352722,"longitude":14.7333231,"category":0,"subcategory":"Halkvarning"},{"id":1407249,"priority":5,"createddate":"/Date(1437382657240+0200)/","title":"Rv 55 Uppsala","exactlocation":"Tpl Tycho Hedéns väg","description":"Arbete med att bygga en ny järnvägsbro över Tycho Hedéns väg. Begränsad höjd är 3,2 meter.","latitude":59.87918472290039,"longitude":17.634679794311523,"category":0,"subcategory":"Vägarbete"},{"id":1566552,"priority":3,"createddate":"/Date(1449736933900+0100)/","title":"E4/E20 Essingeleden","exactlocation":"Av- och påfarter tpl Fredhäll","description":"Arbete med vägräcken. ","latitude":59.32927322387695,"longitude":18.009450912475586,"category":0,"subcategory":"Vägarbete"},{"id":1483398,"priority":3,"createddate":"/Date(1447830550287+0100)/","title":"Lv 282 Uppsala Almungevägen","exactlocation":"Mellan brandstationen och E4","description":"Arbete på vägen. Risk för köbildning även ut på E4 vid trafikplats Kumla.","latitude":59.84631644520587,"longitude":17.720024407748333,"category":0,"subcategory":"Vägarbete"},{"id":1553125,"priority":4,"createddate":"/Date(1448547814650+0100)/","title":"Mora","exactlocation":"Fridhemsgatan","description":"Avstängd mellan Moragatan och Oxbergsvägen. Omledning uppskyltad.","latitude":61.002901588480924,"longitude":14.535675134854968,"category":0,"subcategory":"Vägarbete"},{"id":1551339,"priority":3,"createddate":"/Date(1449823361427+0100)/","title":"Lv 864 Danholn-Sundborn","exactlocation":"Överbackavägen","description":"Avstängt från 26/11 ca kl. 11:00. Pga arbeten med vatten och avlopp.","latitude":60.623680114746094,"longitude":15.79430103302002,"category":0,"subcategory":"Vägarbete"},{"id":1497351,"priority":3,"createddate":"/Date(1449668783383+0100)/","title":"Lv 120 Delary–Älmhult","exactlocation":"","description":"Begränsad framkomlighet förbi arbetet. Endast ett körfält öppet förbi så trafiken får köra växelvis. Risk för långa köer. ","latitude":56.549530029296875,"longitude":14.026314735412598,"category":0,"subcategory":"Vägarbete"},{"id":1568875,"priority":3,"createddate":"/Date(1450038085650+0100)/","title":"Rv 25 Esmared mot Simlångdalen","exactlocation":"","description":"Begränsad framkomlighet pga trafikolycka\n","latitude":56.71676946752815,"longitude":13.239978739548025,"category":0,"subcategory":"Trafikolycka"},{"id":1439931,"priority":3,"createddate":"/Date(1449044498187+0100)/","title":"E20 Strängnäs","exactlocation":"Tpl Biskopskvarn (137)- tpl Lunda (136), mot Eskilstuna","description":"Begränsad framkomlighet. Bygge av järnvägsbro över E20. ","latitude":59.365291595458984,"longitude":16.964046478271484,"category":0,"subcategory":"Vägarbete"},{"id":1484713,"priority":3,"createddate":"/Date(1448612981103+0100)/","title":"E22 Söderköping","exactlocation":"Östra Rydsvägen–tpl Klevbrinken i riktning mot Norrköping","description":"Begränsad framkomlighet. Byggnation av en ny gång- och cykelväg.","latitude":58.483070373535156,"longitude":16.312185287475586,"category":0,"subcategory":"Vägarbete"},{"id":1557116,"priority":3,"createddate":"/Date(1449850438837+0100)/","title":"Lv 240 Molkom-Hagfors","exactlocation":"Fösked-Älvsbacka","description":"Begränsad framkomlighet. Diknings- och dräneringsarbete.","latitude":59.67658996582031,"longitude":13.683475494384766,"category":0,"subcategory":"Vägarbete"},{"id":1513371,"priority":3,"createddate":"/Date(1448533660523+0100)/","title":"E22 Kalmar–Karlskrona","exactlocation":"tpl Ljungbyholm–Hossmo i riktning mot Karlskrona","description":"Begränsad framkomlighet. Körfält avstängt vid arbetsplats för byggnation av nya väg E22","latitude":56.63808059692383,"longitude":16.222171783447266,"category":0,"subcategory":"Vägarbete"},{"id":1508092,"priority":5,"createddate":"/Date(1444103600370+0200)/","title":"Lv 241 från Sunne-Lerdalen","exactlocation":"","description":"Beläggningsarbete.","latitude":59.83991622924805,"longitude":13.188547134399414,"category":0,"subcategory":"Vägarbete"},{"id":1534135,"priority":3,"createddate":"/Date(1449551664123+0100)/","title":"Lv 660 Norrberge-Midlanda","exactlocation":"Bron över Indalsälven","description":"Bron är avstängd. Trafik hänvisas via E4","latitude":62.51906967163086,"longitude":17.42425537109375,"category":0,"subcategory":"Vägarbete"},{"id":1559533,"priority":3,"createddate":"/Date(1449135552837+0100)/","title":"Lv 541 Hassel-Lucksta","exactlocation":"","description":"Byte av vägtrumma. ","latitude":62.273338317871094,"longitude":16.879863739013672,"category":0,"subcategory":"Vägarbete"},{"id":1544476,"priority":3,"createddate":"/Date(1447668545113+0100)/","title":"Rv 55 Strängnäs-Enköping","exactlocation":"Hjulstabron-cirkulationsplats Enögla riktning mot Uppsala","description":"Dikning. Rörligt arbete.","latitude":59.518310546875,"longitude":17.004179000854492,"category":0,"subcategory":"Vägarbete"},{"id":1566793,"priority":3,"createddate":"/Date(1449757248790+0100)/","title":"E4 tpl Sörberge (233) i riktning mot Umeå","exactlocation":"","description":"Ett avstängt körfält.","latitude":62.516319274902344,"longitude":17.391677856445312,"category":2,"subcategory":"Vägarbete"},{"id":1557249,"priority":3,"createddate":"/Date(1449031807503+0100)/","title":"E4 Nyköping-Norrköping","exactlocation":"Trafikplats Gammelsta (128), i riktning mot Norrköping.","description":"Ett körfält avstängt. ","latitude":58.753318786621094,"longitude":16.547788619995117,"category":0,"subcategory":"Vägarbete"},{"id":1568506,"priority":3,"createddate":"/Date(1450032222447+0100)/","title":"Skåne","exactlocation":"I stort sett samtliga vägar","description":"Extremt halt. Anpassa hastigheten och avstånd","latitude":57.73855177845992,"longitude":12.025076610258617,"category":0,"subcategory":"Halkvarning"},{"id":1511539,"priority":4,"createddate":"/Date(1449984735827+0100)/","title":"Västmanlands län","exactlocation":"","description":"Fortfatt risk för lokal frosthalka.","latitude":59.946888,"longitude":16.2786083,"category":0,"subcategory":"Halkvarning"},{"id":1511540,"priority":4,"createddate":"/Date(1449984811443+0100)/","title":"Uppsala län","exactlocation":"","description":"Fortsatt risk för lokal frosthalka.","latitude":59.96126,"longitude":17.78068,"category":0,"subcategory":"Halkvarning"},{"id":1568482,"priority":3,"createddate":"/Date(1449991960013+0100)/","title":"Lv 836.01 Överkalixs kommun","exactlocation":"Röduppleden","description":"Färjan är inställd. Ingen isväg i nuläget.","latitude":66.48563385009766,"longitude":22.77780532836914,"category":1,"subcategory":"Färja"}],"pagination":{"page":1,"size":25,"totalhits":86,"totalpages":4,"nextpage":"http://api.sr.se/api/v2/traffic/messages?size=25&format=json&page=2"},"meta":{"time":1450041532446,"bestBefore":1450041832446}}