{"copyright":"Copyright Sveriges Radio 2015. All rights reserved.","messages":[{"id":1539416,"priority":5,"createddate":"2015-11-17T12:43:00.897Z","title":"Rv 84 Sörsforsa-Delsbo","exactlocation":"Vid avfarten Näsviken","description":"","latitude":61.74943542480469,"longitude":16.835500717163086,"category":0,"subcategory":"Vägarbete"},{"id":1568778,"priority":3,"createddate":"2015-12-14T04:46:38.907Z","title":"Lv 575 vid Burösunds Brygga","exactlocation":"Nordöleden","description":" Nordö 3 går som färja 2. Viss begränsad framkomlighet mellan 05:30-21:30\n","latitude":57.77194595336914,"longitude":11.620141983032227,"category":1,"subcategory":"Färja"},{"id":1263776,"priority":3,"createddate":"2015-12-14T14:58:25.127Z","title":"Örebro län ","exactlocation":"","description":" Risk för lokal frosthalka","latitude":59.4352722,"longitude":14.7333231,"category":0,"subcategory":"Halkvarning"},{"id":1569038,"priority":4,"createddate":"2015-12-14T06:04:21.887Z","title":"Blodbussen","exactlocation":"Grafiska Vägen 16 . Står på parkeringen till ICA Maxi vid Mölndalsvägen\n","description":"14-15 december. Öppet mellan 08:30-15:00.","latitude":57.68117232330807,"longitude":12.002808285787475,"category":3,"subcategory":"Hälsa och sjukvård"},{"id":1407249,"priority":5,"createddate":"2015-07-20T08:57:37.240Z","title":"Rv 55 Uppsala","exactlocation":"Tpl Tycho Hedéns väg","description":"Arbete med att bygga en ny järnvägsbro över Tycho Hedéns väg. Begränsad höjd är 3,2 meter.","latitude":59.87918472290039,"longitude":17.634679794311523,"category":0,"subcategory":"Vägarbete"},{"id":1483398,"priority":3,"createddate":"2015-11-18T07:09:10.287Z","title":"Lv 282 Uppsala Almungevägen","exactlocation":"Mellan brandstationen och E4","description":"Arbete på vägen. Risk för köbildning även ut på E4 vid trafikplats Kumla.","latitude":59.84631644520587,"longitude":17.720024407748333,"category":0,"subcategory":"Vägarbete"},{"id":1553125,"priority":4,"createddate":"2015-11-26T14:23:34.650Z","title":"Mora","exactlocation":"Fridhemsgatan","description":"Avstängd mellan Moragatan och Oxbergsvägen. Omledning uppskyltad.","latitude":61.002901588480924,"longitude":14.535675134854968,"category":0,"subcategory":"Vägarbete"},{"id":1551339,"priority":3,"createddate":"2015-12-11T08:42:41.427Z","title":"Lv 864 Danholn-Sundborn","exactlocation":"Överbackavägen","description":"Avstängt från 26/11 ca kl. 11:00. Pga arbeten med vatten och avlopp.","latitude":60.623680114746094,"longitude":15.79430103302002,"category":0,"subcategory":"Vägarbete"},{"id":1497351,"priority":3,"createddate":"2015-12-09T13:46:23.383Z","title":"Lv 120 Delary–Älmhult","exactlocation":"","description":"Begränsad framkomlighet förbi arbetet. Endast ett körfält öppet förbi så trafiken får köra växelvis. Risk för långa köer. ","latitude":56.549530029296875,"longitude":14.026314735412598,"category":0,"subcategory":"Vägarbete"},{"id":1439931,"priority":3,"createddate":"2015-12-02T08:21:38.187Z","title":"E20 Strängnäs","exactlocation":"Tpl Biskopskvarn (137)- tpl Lunda (136), mot Eskilstuna","description":"Begränsad framkomlighet. Bygge av järnvägsbro över E20. ","latitude":59.365291595458984,"longitude":16.964046478271484,"category":0,"subcategory":"Vägarbete"},{"id":1484713,"priority":3,"createddate":"2015-11-27T08:29:41.103Z","title":"E22 Söderköping","exactlocation":"Östra Rydsvägen–tpl Klevbrinken i riktning mot Norrköping","description":"Begränsad framkomlighet. Byggnation av en ny gång- och cykelväg.","latitude":58.483070373535156,"longitude":16.312185287475586,"category":0,"subcategory":"Vägarbete"},{"id":1557116,"priority":3,"createddate":"2015-12-11T16:13:58.837Z","title":"Lv 240 Molkom-Hagfors","exactlocation":"Fösked-Älvsbacka","description":"Begränsad framkomlighet. Diknings- och dräneringsarbete.","latitude":59.67658996582031,"longitude":13.683475494384766,"category":0,"subcategory":"Vägarbete"},{"id":1513371,"priority":3,"createddate":"2015-11-26T10:27:40.523Z","title":"E22 Kalmar–Karlskrona","exactlocation":"tpl Ljungbyholm–Hossmo i riktning mot Karlskrona","description":"Begränsad framkomlighet. Körfält avstängt vid arbetsplats för byggnation av nya väg E22","latitude":56.63808059692383,"longitude":16.222171783447266,"category":0,"subcategory":"Vägarbete"},{"id":1508092,"priority":5,"createddate":"2015-10-06T03:53:20.370Z","title":"Lv 241 från Sunne-Lerdalen","exactlocation":"","description":"Beläggningsarbete.","latitude":59.83991622924805,"longitude":13.188547134399414,"category":0,"subcategory":"Vägarbete"},{"id":1569151,"priority":4,"createddate":"2015-12-14T08:00:56.953Z","title":"Områdena kring Ödeshög och Boxholm","exactlocation":"","description":"Besiktning av elledningar med lågt flygande helikopter. Hästar och andra djur kan bli skrämda. Pågår 14–18 dec.","latitude":58.234752616257076,"longitude":14.649525213170689,"category":3,"subcategory":"Buller"},{"id":1569022,"priority":4,"createddate":"2015-12-14T05:52:09.340Z","title":"Området kring Loftahammar","exactlocation":"","description":"Besiktning av elledningar med lågt flygande helikopter. Hästar och andra djur kan bli skrämda. Pågår under måndagen.","latitude":57.90659375708369,"longitude":16.693683920123842,"category":3,"subcategory":"Buller"},{"id":1566776,"priority":4,"createddate":"2015-12-14T05:45:49.273Z","title":"Stockholm","exactlocation":"\n","description":"Blodbussar måndag 14/12: Södertörns högskola Alfred Nobels allé 5 Huddinge, Globentorget 2 Johanneshov,  Åva Gymn Åva Skolgränd 1-3 Täby, Gårdsvägen 6 Solna.","latitude":59.32177757681305,"longitude":17.99700012683626,"category":3,"subcategory":"Hälsa och sjukvård"},{"id":1568988,"priority":4,"createddate":"2015-12-14T04:55:43.873Z","title":"Bromölla","exactlocation":"Torget vid IFÖs huvudkontor","description":"Blodbussen på plats 10:00-12:30 och 13:45-16:45.","latitude":56.07352402107314,"longitude":14.478900923481088,"category":3,"subcategory":"Hälsa och sjukvård"},{"id":1534135,"priority":3,"createddate":"2015-12-08T05:14:24.123Z","title":"Lv 660 Norrberge-Midlanda","exactlocation":"Bron över Indalsälven","description":"Bron är avstängd. Trafik hänvisas via E4","latitude":62.51906967163086,"longitude":17.42425537109375,"category":0,"subcategory":"Vägarbete"},{"id":1559533,"priority":3,"createddate":"2015-12-03T09:39:12.837Z","title":"Lv 541 Hassel-Lucksta","exactlocation":"","description":"Byte av vägtrumma. ","latitude":62.273338317871094,"longitude":16.879863739013672,"category":0,"subcategory":"Vägarbete"},{"id":1569393,"priority":3,"createddate":"2015-12-14T12:42:16.650Z","title":"E12 Hemavan-norska gränsen","exactlocation":"På sträckan Umasjö, Vilasund, Strimasund","description":"Bärgning av lastbil pågår.","latitude":66.0373306274414,"longitude":15.04576301574707,"category":0,"subcategory":"Trafikstörning"},{"id":1569381,"priority":3,"createddate":"2015-12-14T12:31:50.093Z","title":"Göteborg–Linnéplatsen","exactlocation":"Per Dubbsgatan nära Dag Hammarskjöldsleden","description":"Det kan vara besvärligt att ta sig till och från Sahlgrenska sjukhuset och området runt, detta på grund av vägarbete med brunnar.\n","latitude":57.68392562866211,"longitude":11.957837104797363,"category":0,"subcategory":"Vägarbete"},{"id":1544476,"priority":3,"createddate":"2015-11-16T10:09:05.113Z","title":"Rv 55 Strängnäs-Enköping","exactlocation":"Hjulstabron-cirkulationsplats Enögla riktning mot Uppsala","description":"Dikning. Rörligt arbete.","latitude":59.518310546875,"longitude":17.004179000854492,"category":0,"subcategory":"Vägarbete"},{"id":1569438,"priority":3,"createddate":"2015-12-14T13:59:48.837Z","title":"Rv 83 Bollnäs-Ånge","exactlocation":"Sjukhusvägen vid stadshuset, körriktning mot rv 50/rondellen och vidare norrut på rv 83 ","description":"En lastbil med motorhaveri straxt före bron över järnvägen.","latitude":61.34433364868164,"longitude":16.391433715820312,"category":0,"subcategory":"Trafikstörning"},{"id":1568985,"priority":4,"createddate":"2015-12-14T04:46:56.830Z","title":"Karlskrona","exactlocation":"Skeppsbrokajen","description":"Ett 40-tal parkeringar avstängda under måndagen pga gatuarbete.","latitude":56.16735126319665,"longitude":15.590203795470808,"category":0,"subcategory":"Trafikstörning"},{"id":1566793,"priority":3,"createddate":"2015-12-10T14:20:48.790Z","title":"E4 tpl Sörberge (233) i riktning mot Umeå","exactlocation":"","description":"Ett avstängt körfält.","latitude":62.516319274902344,"longitude":17.391677856445312,"category":2,"subcategory":"Vägarbete"},{"id":1569280,"priority":3,"createddate":"2015-12-14T11:18:39.500Z","title":"E45 Strömsund-Hammerdal","exactlocation":"Fagerdal N-Fagerdal S i södergående riktning","description":"Ett avstängt körfält.","latitude":63.67157745361328,"longitude":15.392151832580566,"category":0,"subcategory":"Vägarbete"},{"id":1557249,"priority":3,"createddate":"2015-12-02T04:50:07.503Z","title":"E4 Nyköping-Norrköping","exactlocation":"Trafikplats Gammelsta (128), i riktning mot Norrköping.","description":"Ett körfält avstängt. ","latitude":58.753318786621094,"longitude":16.547788619995117,"category":0,"subcategory":"Vägarbete"},{"id":1511540,"priority":4,"createddate":"2015-12-13T05:33:31.443Z","title":"Uppsala län","exactlocation":"","description":"Fortsatt risk för lokal frosthalka.","latitude":59.96126,"longitude":17.78068,"category":0,"subcategory":"Halkvarning"},{"id":1511539,"priority":4,"createddate":"2015-12-14T09:15:07.753Z","title":"Västmanlands län ","exactlocation":"","description":"Fortsatt risk för lokal frosthalka.","latitude":59.946888,"longitude":16.2786083,"category":0,"subcategory":"Halkvarning"},{"id":1557682,"priority":3,"createddate":"2015-12-14T11:43:14.023Z","title":"Lv 891 Skenäsfärjan ","exactlocation":"","description":"Färjan står still tisd 15/12 till torsd 17/12 08:30–16:00. Orsaken är att dykare finns i vattnet i samband med bojarbete. ","latitude":58.638118743896484,"longitude":16.59667205810547,"category":2,"subcategory":"Färja"},{"id":1568482,"priority":3,"createddate":"2015-12-13T07:32:40.013Z","title":"Lv 836.01 Överkalixs kommun","exactlocation":"Röduppleden","description":"Färjan är inställd. Ingen isväg i nuläget.","latitude":66.48563385009766,"longitude":22.77780532836914,"category":1,"subcategory":"Färja"},{"id":1569324,"priority":3,"createddate":"2015-12-14T13:46:07.827Z","title":"Borås-Göteborg","exactlocation":"","description":"Förseningar efter en olycka tidigare idag. Trafiken beräknas gå efter tidtabell under eftermiddagen.","latitude":57.56237064768999,"longitude":13.175574822007158,"category":1,"subcategory":"Tåg"},{"id":1569347,"priority":3,"createddate":"2015-12-14T11:40:00.677Z","title":"E4 Kalix-Töre","exactlocation":"Nära tpl Åkroken","description":"Ganska många renar. Renar på flera ställen.","latitude":65.88058626091834,"longitude":22.94881649449503,"category":0,"subcategory":"Trafikstörning"},{"id":1521191,"priority":3,"createddate":"2015-11-10T10:33:20.150Z","title":"Magnus Ladulåsgatan mot Rosenlundsgatan","exactlocation":"Mellan Västgötagatan och Swedenborgsgatan","description":"Gatan enkelriktad mot Rosenlundsgatan från Västgötagatan till Swedenborgsgatan. Schakt för fjärrvärme. ","latitude":59.31259536743164,"longitude":18.066604614257812,"category":0,"subcategory":"Vägarbete"},{"id":1554578,"priority":3,"createddate":"2015-11-30T07:23:35.437Z","title":"Lv 316 Vemdalen-Åsarna","exactlocation":"Klövsjö","description":"Grävarbeten och nedläggning av kabel.  ","latitude":62.503658294677734,"longitude":14.200440406799316,"category":0,"subcategory":"Vägarbete"},{"id":1565286,"priority":3,"createddate":"2015-12-08T15:18:37.697Z","title":"Valhallavägen","exactlocation":"Mellan Surbrunnsgatan och Frejgatan","description":"Höger körfält avstängt på grund av vägarbete.","latitude":59.34732437133789,"longitude":18.065418243408203,"category":0,"subcategory":"Vägarbete"},{"id":1569166,"priority":3,"createddate":"2015-12-14T08:31:58.427Z","title":"Knivsta kommun","exactlocation":"","description":"Just nu går det inte att ringa till Knivsta kommuns växelnummer på grund av tekniska problem. Felsökning pågår. Ingen prognos. Direktnummer till alla verksamheter fungerar som vanligt.","latitude":59.72753219980294,"longitude":17.794585111801954,"category":3,"subcategory":"Tele och data"},{"id":1534043,"priority":3,"createddate":"2015-11-16T16:15:00.393Z","title":"E22 Gusum–Ringarum","exactlocation":"","description":"Kortare omledning på en tillfällig väg. Byte av rörbro.","latitude":58.30965805053711,"longitude":16.483673095703125,"category":0,"subcategory":"Vägarbete"},{"id":1442001,"priority":3,"createddate":"2015-11-18T04:56:21.000Z","title":"Lv 156 Skene","exactlocation":"Korsningen Varbergsvägen/Örbyvägen","description":"Körfält avstängt. Arbetsfordon finns på vägbanan. Arbete med att bredda vägen. ","latitude":57.48634338378906,"longitude":12.646737098693848,"category":0,"subcategory":"Vägarbete"},{"id":1567592,"priority":3,"createddate":"2015-12-11T15:53:00.070Z","title":"E6 av-/påfart från Bällskärsvägen, E6 (Tpl Tingstadsmotet) till E6.21 (Tpl Ringömotet) i Göteborg kommun","exactlocation":"Av-/påfart från Bällskärsvägen, Tingstadsmotet, södergående","description":"Körfält stängs av i samband med schaktningsarbeten.","latitude":57.73060607910156,"longitude":11.983270645141602,"category":0,"subcategory":"Vägarbete"},{"id":1406672,"priority":3,"createddate":"2015-12-11T16:28:08.547Z","title":"E20 Partille–Lerum","exactlocation":"Jerikotunneln–Fräntorpsmotet(78)","description":"Körfält stängs av nattetid på grund av asfalteringsarbete.","latitude":57.74127197265625,"longitude":12.185935974121094,"category":0,"subcategory":"Vägarbete"},{"id":1567569,"priority":3,"createddate":"2015-12-11T15:50:30.527Z","title":"E6 vid Ringömotet","exactlocation":"Södergående","description":"Körfältsavstängning i samband med ombyggnadsarbete.\n","latitude":57.72996520996094,"longitude":11.982913970947266,"category":0,"subcategory":"Vägarbete"},{"id":1569491,"priority":3,"createddate":"2015-12-14T14:51:06.200Z","title":"E20 Vara-Skara","exactlocation":"Mellan Vara och tpl Åsen","description":"Lastbil med haveri. Mycket trångt att passera. Polis på väg.","latitude":58.27008056640625,"longitude":13.007460594177246,"category":0,"subcategory":"Trafikstörning"},{"id":1569492,"priority":3,"createddate":"2015-12-14T14:49:37.760Z","title":"Rv 47 Falköping","exactlocation":"rondellen mot Ulricehamn","description":"Lastbil med haveri. Står i vägen om man kommer från Vara-hållet och ska in i rondellen mot Falköping eller Ulricehamn.","latitude":58.15007236111695,"longitude":13.55875190500392,"category":0,"subcategory":"Trafikstörning"},{"id":1569484,"priority":3,"createddate":"2015-12-14T14:40:04.713Z","title":"E16 Mockfjärd-Borlänge","exactlocation":"Sifferbo camping","description":"Lastbil som står illa till.","latitude":60.5524367309526,"longitude":15.235186607437699,"category":0,"subcategory":"Trafikstörning"},{"id":1566765,"priority":3,"createddate":"2015-12-11T15:51:21.740Z","title":"Härryda-Bollebyggd","exactlocation":"Härryda kyrka-Björredsmotet (76)","description":"Ledningsarbete i riktning mot Göteborg.","latitude":57.690269470214844,"longitude":12.278976440429688,"category":0,"subcategory":"Vägarbete"},{"id":1510363,"priority":4,"createddate":"2015-12-14T14:34:22.380Z","title":"Blekinge län","exactlocation":"","description":"Mestadels torra vägar. Risk för lokal halka på det lågtrafikerade vägnätet.","latitude":56.3117943,"longitude":15.2829609,"category":0,"subcategory":"Halkvarning"},{"id":1569228,"priority":3,"createddate":"2015-12-14T09:36:30.797Z","title":"Västra Götalands län","exactlocation":"","description":"Minusgrader i vägarna och risk för halka.","latitude":58.39404430131129,"longitude":13.873498995071923,"category":0,"subcategory":"Halkvarning"},{"id":1510364,"priority":4,"createddate":"2015-12-14T11:24:02.130Z","title":"Jönköpings län","exactlocation":"","description":"Minusgrader i vägarna och ökad risk för lokal frosthalka under måndagseftermiddagen.","latitude":57.47894,"longitude":14.3679695,"category":0,"subcategory":"Halkvarning"},{"id":1511541,"priority":4,"createddate":"2015-12-14T11:28:17.920Z","title":"Östergötlands län","exactlocation":"","description":"Minusgrader i vägarna och ökad risk för lokal frosthalka under måndagseftermiddagen.","latitude":58.3364258,"longitude":15.6248283,"category":0,"subcategory":"Halkvarning"},{"id":1487818,"priority":4,"createddate":"2015-12-14T09:34:23.183Z","title":"Halland","exactlocation":"","description":"Minusgrader i vägarna på många håll och risk för halka.","latitude":56.9494667,"longitude":12.8037291,"category":0,"subcategory":"Halkvarning"},{"id":1557082,"priority":3,"createddate":"2015-11-30T14:06:09.050Z","title":"E16 Kungsgården-Sandviken","exactlocation":"Mellan tpl Åsen och tpl Sandviken Västra i riktning mot Sandviken","description":"Montering av fundament för elstolpar.","latitude":60.60951232910156,"longitude":16.647851943969727,"category":0,"subcategory":"Vägarbete"},{"id":1569460,"priority":3,"createddate":"2015-12-14T14:43:53.017Z","title":"Lv 147 Slite-Fole","exactlocation":"","description":"Mycket halt väglag.","latitude":57.65779158106708,"longitude":18.671274894269228,"category":0,"subcategory":"Halkvarning"},{"id":1569448,"priority":3,"createddate":"2015-12-14T13:44:07.180Z","title":"Linje 25 och 753","exactlocation":"Mölndal–Fässbergshemmet","description":"Ny hållplats har tagits ibruk, den gamla finns inte längre.","latitude":57.665275477310566,"longitude":11.991200435822456,"category":1,"subcategory":"Buss"},{"id":1546988,"priority":3,"createddate":"2015-11-19T06:04:56.053Z","title":"Rv 61 Åmotsfors-Charlottenberg","exactlocation":"Dalen till Solhem ","description":"Ombyggnad till 2+1 väg.","latitude":59.78485870361328,"longitude":12.354942321777344,"category":0,"subcategory":"Vägarbete"},{"id":1569232,"priority":3,"createddate":"2015-12-14T09:45:51.260Z","title":"E4 Gränna–Jönköping","exactlocation":"Vättersmålen/Vätterleden (102)–Huskvarna N (101) i södergående","description":"Personal och arbetsfordon på vägbanan. Grävningsarbete på del av sträckan. Pågår under måndagen.","latitude":57.92046356201172,"longitude":14.312447547912598,"category":0,"subcategory":"Vägarbete"},{"id":1568631,"priority":3,"createddate":"2015-12-13T12:51:44.793Z","title":"E4 tpl Lampen- tpl Vånafjärden ","exactlocation":"","description":"Renar på eller brevid vägen","latitude":65.82178497314453,"longitude":23.29925537109375,"category":0,"subcategory":"Trafikstörning"},{"id":1569231,"priority":3,"createddate":"2015-12-14T09:38:25.647Z","title":"E12 Lycksele-Storuman","exactlocation":"Vid Rusfors","description":"Renar vid vägen.","latitude":64.72270037357593,"longitude":18.227808293406596,"category":0,"subcategory":"Trafikstörning"},{"id":1487819,"priority":3,"createddate":"2015-12-14T14:22:34.327Z","title":"Värmlands län","exactlocation":"","description":"Risk för lokal frosthalka.","latitude":59.8638344,"longitude":13.2893448,"category":0,"subcategory":"Halkvarning"},{"id":1487662,"priority":4,"createddate":"2015-12-14T04:26:13.990Z","title":"Dalarnas län","exactlocation":"  ","description":"Risk för lokal frosthalka. ","latitude":60.7344055,"longitude":14.7284212,"category":0,"subcategory":"Halkvarning"},{"id":1487657,"priority":4,"createddate":"2015-12-11T16:30:49.117Z","title":"Gävleborgs län","exactlocation":"","description":"Risk för lokal frosthalka.","latitude":61.4704742,"longitude":16.70279,"category":0,"subcategory":"Halkvarning"},{"id":1505778,"priority":4,"createddate":"2015-12-11T05:31:14.517Z","title":"Jämtlands län","exactlocation":"  ","description":"Risk för lokal frosthalka.","latitude":63.4809952,"longitude":14.326333,"category":0,"subcategory":"Halkvarning"},{"id":1569216,"priority":3,"createddate":"2015-12-14T09:19:58.390Z","title":"E20 Strängnäs-Södertälje","exactlocation":"Läggesta-Nykvarn","description":"Räckesarbeten utförs efter sträckan. ","latitude":59.20232009887695,"longitude":17.36276626586914,"category":0,"subcategory":"Vägarbete"},{"id":1539616,"priority":5,"createddate":"2015-11-16T16:19:20.343Z","title":"Lv 873 i Kiruna ","exactlocation":"","description":"Schaktning för ny vattenledning för nya stadskärnan. Schaktningsarbetet kommer att ske i vägmitt.","latitude":67.84821319580078,"longitude":20.291839599609375,"category":0,"subcategory":"Vägarbete"},{"id":1510366,"priority":3,"createddate":"2015-12-14T09:50:24.663Z","title":"Kalmar län","exactlocation":"","description":"SMHI-varning klass 1: I södra Kalmar län utom Öland kan underkylt regn och regn på kalla vägbanor medföra plötslig ishalka under måndagskvällen.","latitude":56.8659172,"longitude":15.9477434,"category":0,"subcategory":"Halkvarning"},{"id":1510367,"priority":3,"createddate":"2015-12-14T09:51:34.287Z","title":"Kronobergs län","exactlocation":"","description":"SMHI-varning klass 1: I östra delarna av länet kan underkylt regn och regn på kalla vägbanor medföra plötslig ishalka under måndagskvällen.","latitude":56.7490959,"longitude":14.3933315,"category":0,"subcategory":"Halkvarning"},{"id":1569440,"priority":3,"createddate":"2015-12-14T13:36:06.130Z","title":"Lv 301 Ovanåker-Edsbyn","exactlocation":"","description":"Stillastående lastbil i riktning mot Edsbyn. Saknar varningsblinkers framåt.","latitude":61.368649481645924,"longitude":15.865854112363197,"category":0,"subcategory":"Trafikstörning"},{"id":1569434,"priority":3,"createddate":"2015-12-14T14:00:32.357Z","title":"Rv 50 Askersund-Motala","exactlocation":"Strax söder om Askersund","description":"Stillastående lastbil i riktning mot Motala.","latitude":58.875183646938346,"longitude":14.895688465411059,"category":0,"subcategory":"Trafikstörning"},{"id":1569466,"priority":3,"createddate":"2015-12-14T14:49:11.800Z","title":"E4 Mjölby ","exactlocation":"Mellan Mjölby Västra (108)-Mjölby Östra (109), mot Linköping","description":"Stillastående lastbil i vägren. Personer som rör sig kring lastbilen. ","latitude":58.34226989746094,"longitude":15.171285629272461,"category":0,"subcategory":"Trafikstörning"},{"id":1563801,"priority":2,"createddate":"2015-12-14T12:29:17.243Z","title":"Örebro-Borlänge/Falun/Gävle/Mjölby/Lindesberg","exactlocation":"Frövi","description":"Stopp för tågtrafik mellan Skinnskatteberg och Örebro pga godståg som spårat ut vid Frövi. Vissa av avgångarna som passerar Frövi går bara delsträckor, andra ersätts med buss och vissa avgångar ställs in helt. Kolla med tditt tågbolag vad som gäller just för din avgång. ","latitude":59.465029844507576,"longitude":15.366200419183267,"category":1,"subcategory":"Tåg"},{"id":1569469,"priority":3,"createddate":"2015-12-14T14:20:57.340Z","title":"Bjurholm, Granö, Lycksele, Vindeln, Örträsk","exactlocation":"","description":"Strömavbrott för cirka 550 av Vattenfalls kunder. Felavhjälpning pågår, preliminär klartid 18:30.","latitude":64.161228164863,"longitude":19.083942429757553,"category":3,"subcategory":"El"},{"id":1481993,"priority":3,"createddate":"2015-09-23T13:26:56.513Z","title":"Rv 23 Växjö","exactlocation":"Korsningen Stora Räppevägen/Norrleden","description":"Stundtals köer. Byggnation av gång- och cykelport.","latitude":56.869258880615234,"longitude":14.73924732208252,"category":0,"subcategory":"Vägarbete"},{"id":1569084,"priority":3,"createddate":"2015-12-14T07:23:20.713Z","title":"Lv 250 Köping-Fagersta","exactlocation":"Vid Kolsva, i riktning mot Oti","description":"Sättning av kantsten.","latitude":59.59963607788086,"longitude":15.842994689941406,"category":0,"subcategory":"Vägarbete"},{"id":1515180,"priority":3,"createddate":"2015-11-24T10:39:01.940Z","title":"Rv 32 Tranås-Sommen","exactlocation":"","description":"Södergående trafik leds av vid Tenbäcken och kör gamla vägen till Tranås. Norrgående trafik passerar på rv 32 som vanligt, begränsad framkomlighet där. Omledningen beräknas gälla fram till jul. Vägen byggs om till 2+1-väg ","latitude":58.06538772583008,"longitude":14.95679759979248,"category":0,"subcategory":"Vägarbete"},{"id":1546358,"priority":5,"createddate":"2015-11-29T18:42:10.847Z","title":"Midvägen Östersund","exactlocation":"","description":"Till följd av ökad obehörig trafik vid Lugnvikskolan stängs Midvägen av för trafik mellan 07.00-17.00. Under den tiden får endast fordon i linjetrafik samt fordon med rörelsehindrad person som innehar parkeringstillstånd färdas på vägen.","latitude":63.205564994924174,"longitude":14.630246761853261,"category":0,"subcategory":"Trafikstörning"},{"id":1569473,"priority":3,"createddate":"2015-12-14T14:19:52.273Z","title":"Rv 69 Falun-Rättvik","exactlocation":"Strax norr om Falun","description":"Timmerbil som står illa till.","latitude":60.64506005588235,"longitude":15.57318893063074,"category":0,"subcategory":"Trafikstörning"},{"id":1569386,"priority":3,"createddate":"2015-12-14T12:36:29.890Z","title":"Mariebergsgatan","exactlocation":"Före korsningen Drottningholmsvägen i riktning mot Lilla Västerbron","description":"Trafik släpps förbi växelvis. Risk för kö. Vägarbete.","latitude":59.33236873457082,"longitude":18.02380258065763,"category":0,"subcategory":"Vägarbete"},{"id":1562926,"priority":3,"createddate":"2015-12-09T05:16:34.460Z","title":"Rv 55 Uppsala–Enköping","exactlocation":"Litslena - tpl Annelund (143) i riktning mot Strängnäs ","description":"Trafiken leds med signal eller vakt. ","latitude":59.66455841064453,"longitude":17.266510009765625,"category":0,"subcategory":"Vägarbete"},{"id":1557988,"priority":3,"createddate":"2015-12-01T10:02:35.283Z","title":"E6 Strömstad–Svinesund","exactlocation":"Nordbymotet (114)–Svinesund","description":"Trafiken leds över på en körbana. Orsaken är rivning av en betalstation.","latitude":59.07704162597656,"longitude":11.24947738647461,"category":0,"subcategory":"Vägarbete"},{"id":1526215,"priority":5,"createddate":"2015-12-08T10:31:18.643Z","title":"Rv 72 Vänge-Kvarnbo","exactlocation":"","description":"Trafiken regleras med ljussignaler på grund av kabelarbete.","latitude":59.85140609741211,"longitude":17.49069595336914,"category":0,"subcategory":"Vägarbete"},{"id":1563338,"priority":5,"createddate":"2015-12-06T15:10:09.677Z","title":"Lv 815 Fellingsbro-Örebro","exactlocation":"Karltorp","description":"Träd över vägen i riktning mot Örebro","latitude":59.379780734207195,"longitude":15.439994573446493,"category":0,"subcategory":"Trafikstörning"},{"id":1569367,"priority":3,"createddate":"2015-12-14T14:02:00.563Z","title":"Kalmar","exactlocation":"Esplanaden 1-17","description":"Vattnet avstängt under måndagen kl. 14-15 pga ett akut ledningsarbete. När vattnet kommer tillbaka kan det vara missfärgat, spola då lite extra i kranen. \n","latitude":56.664923976602175,"longitude":16.351037256028842,"category":3,"subcategory":"Vatten"},{"id":1569397,"priority":3,"createddate":"2015-12-14T12:45:30.517Z","title":"E45 Åmål","exactlocation":"","description":"Vid järnvägsövergång söder om Åmål pågår asfalteringsarbeten. Flaggvakter.","latitude":59.037261962890625,"longitude":12.671897888183594,"category":0,"subcategory":"Vägarbete"},{"id":1564938,"priority":4,"createddate":"2015-12-14T06:06:49.717Z","title":"Blodcentralerna","exactlocation":"","description":"Vädjan från blodcentralen om hjälp med att fylla upp blodlagren genom att lämna blod inför kommande helger. Välkommen till de  fasta blodcentralerna eller blodbussar.","latitude":59.32815695796981,"longitude":18.16465430127802,"category":3,"subcategory":"Hälsa och sjukvård"},{"id":1530106,"priority":3,"createddate":"2015-10-28T09:56:42.917Z","title":"Rv 87 Stugun","exactlocation":"","description":"Vägarbete genom Stugun. TMA-bil på vägen. Rör sig personer på vägbanan. ","latitude":63.16762924194336,"longitude":15.618271827697754,"category":0,"subcategory":"Vägarbete"},{"id":1569006,"priority":3,"createddate":"2015-12-14T05:55:37.530Z","title":"Lv 560 Kungsör","exactlocation":"Kungsgatan, Kungsör C-Västersäby","description":"Vägarbete med trafikljus. Begränsad framkomlighet.","latitude":59.42456817626953,"longitude":16.12705421447754,"category":0,"subcategory":"Vägarbete"},{"id":1556757,"priority":5,"createddate":"2015-12-08T11:30:38.383Z","title":"Rv 55 Uppsala-Enköping","exactlocation":"Bärbyleden/Enköpingsvägen","description":"Vägarbete.","latitude":59.855125427246094,"longitude":17.592878341674805,"category":0,"subcategory":"Vägarbete"},{"id":1569436,"priority":3,"createddate":"2015-12-14T14:25:53.960Z","title":"Lv 153 Ullared","exactlocation":"","description":"Vägarbete. Kan vara trångt att passera.","latitude":57.13759994506836,"longitude":12.710490226745605,"category":0,"subcategory":"Vägarbete"},{"id":1569421,"priority":3,"createddate":"2015-12-14T13:16:09.603Z","title":"Rv 44 Uddevalla","exactlocation":"Motorvägstunnlarna mot Torp","description":"Vägen avstängd kvällen och natten mot tisdag kl. 19-05 pga arbete. Trafiken leds om via Kurverödsleden. Eventuellt fortsätter arbetet också natten tisdag-onsdag. ","latitude":58.356483459472656,"longitude":11.90642261505127,"category":2,"subcategory":"Vägarbete"},{"id":1569186,"priority":3,"createddate":"2015-12-14T08:53:25.857Z","title":"Lv 614 Lagan","exactlocation":"Åbyforsvägen, vid bron över Lagan","description":"Vägen avstängd pga broarbete. Följ orange vägvisning.","latitude":56.91180419921875,"longitude":13.991808891296387,"category":0,"subcategory":"Vägarbete"},{"id":1542094,"priority":3,"createddate":"2015-11-27T10:10:42.497Z","title":"Borås","exactlocation":"Åsbogatan, mellan Kungsleden och Allégatan","description":"Vägen avstängd pga byggnation av bussfil.","latitude":57.719811893090274,"longitude":12.943832949851924,"category":0,"subcategory":"Vägarbete"},{"id":1564907,"priority":3,"createddate":"2015-12-14T10:03:14.240Z","title":"Lv 1541 Mjöbäck–Mårdaklev","exactlocation":"","description":"Vägen avstängd tills vidare. Reparationsarbete efter översvämningsskador.","latitude":57.29132080078125,"longitude":12.942523002624512,"category":0,"subcategory":"Trafikstörning"},{"id":1569449,"priority":3,"createddate":"2015-12-14T14:13:29.340Z","title":"Rv 25 Nybro–Kalmar","exactlocation":"Trekanten-Smedby, mot Kalmar","description":"Vägen fri efter tidigare olycka. Vissa köer kan återstå. ","latitude":56.68129348754883,"longitude":16.17542839050293,"category":0,"subcategory":"Trafikstörning"},{"id":1537497,"priority":5,"createddate":"2015-11-29T18:41:46.417Z","title":"Lv 1019 vid Storulvån båda riktningarna","exactlocation":"","description":"Vägen till Storulvån är vinterstängd mellan 1/11 - 31/1.","latitude":63.21542739868164,"longitude":12.406817436218262,"category":0,"subcategory":"Trafikstörning"},{"id":1566630,"priority":3,"createddate":"2015-12-10T10:27:21.087Z","title":"Göteborg–Gamlestadsvägen ","exactlocation":"Mellan Slakthusgatan och Väg 190","description":"Vägen är stängd strax efter Alelyckans köpcenter. Det går att välja intilliggande Lärjeågatan som allternativ.\n","latitude":57.755306243896484,"longitude":12.010954856872559,"category":0,"subcategory":"Vägarbete"},{"id":1558430,"priority":4,"createddate":"2015-12-04T19:36:02.383Z","title":"Lv 531 Funäsdalen-Ljungdalen ","exactlocation":"Från Mittådalen till Ljungdalen ","description":"Vägen över Flatruet är nattstängd mellan klockan 22:00-06:00 under perioden 1 December-15 April. Vid besvärligt väder kan vägen stängas med kort varsel även under annan tid.","latitude":62.77565383911133,"longitude":12.765754699707031,"category":0,"subcategory":"Trafikstörning"},{"id":1558549,"priority":4,"createddate":"2015-12-02T14:02:41.027Z","title":"Umeå, Umeälven","exactlocation":"Vid järnvägsbron mellan Bergsboda och Stor-Sandskär","description":"Isränna bryts så fort isen lägger sig. Isrännan kvarstår december ut.  ","latitude":63.76707632042192,"longitude":20.32501859948121,"category":3,"subcategory":"Övrigt"},{"id":1551498,"priority":3,"createddate":"2015-12-11T04:15:22.783Z","title":"Västberga","exactlocation":"Västberga allé bron över järnvägen ","description":"Omlagd körväg för linje 165, linje 143 dras in på sträckan Liljeholmen-Älvsjö stn.  Nya linje145 trafikerar sträckan Telefonplan-Västberga-Årstaberg-(Liljeholmen). ","latitude":59.288072367712566,"longitude":18.01951159520339,"category":1,"subcategory":"Buss"},{"id":1569112,"priority":3,"createddate":"2015-12-14T09:37:09.593Z","title":"Stockholms län","exactlocation":"","description":"Från 13 december gäller ny tidtabell för T-bana, Pendeltåg, Lidingöbanan, samt för bussarna i Tyresö/Handen och Nynäshamn.","latitude":59.28526670539363,"longitude":18.096224197616603,"category":1,"subcategory":"Tåg"}],"pagination":{"page":1,"size":100,"totalhits":108,"totalpages":2,"nextpage":"http://api.sr.se/api/v2/traffic/messages?size=100&format=json&page=2"},"meta":{"time":1450105186258,"bestBefore":1450105486258}}