{"copyright":"Copyright Sveriges Radio 2015. All rights reserved.","messages":[{"id":1567273,"priority":3,"createddate":"2015-12-11T08:07:26.383Z","title":"E20 Eskilstuna-Strängnäs från i Södermanlands län (D)","exactlocation":"Tpl Kjula (134) - Arphus i riktning mot Stockholm ","description":"","latitude":59.36941909790039,"longitude":16.71934700012207,"category":0,"subcategory":"Vägarbete"},{"id":1571774,"priority":3,"createddate":"2015-12-17T12:21:19.800Z","title":"E4 Sangis- Säivis  ","exactlocation":"Ren befinner sig på fel sida viltstängslet i området.","description":"","latitude":65.84819030761719,"longitude":23.58538818359375,"category":0,"subcategory":"Trafikstörning"},{"id":1569263,"priority":3,"createddate":"2015-12-14T11:19:54.477Z","title":"E45 Malmberget-Jokkmokk","exactlocation":"Porjus-Hapsas ","description":"","latitude":66.98383331298828,"longitude":19.83392333984375,"category":0,"subcategory":"Vägarbete"},{"id":1539416,"priority":5,"createddate":"2015-11-17T12:43:00.897Z","title":"Rv 84 Sörsforsa-Delsbo","exactlocation":"Vid avfarten Näsviken","description":"","latitude":61.74943542480469,"longitude":16.835500717163086,"category":0,"subcategory":"Vägarbete"},{"id":1407249,"priority":5,"createddate":"2015-07-20T08:57:37.240Z","title":"Rv 55 Uppsala","exactlocation":"Tpl Tycho Hedéns väg","description":"Arbete med att bygga en ny järnvägsbro över Tycho Hedéns väg. Begränsad höjd är 3,2 meter.","latitude":59.87918472290039,"longitude":17.634679794311523,"category":0,"subcategory":"Vägarbete"},{"id":1483398,"priority":3,"createddate":"2015-11-18T07:09:10.287Z","title":"Lv 282 Uppsala Almungevägen","exactlocation":"Mellan brandstationen och E4","description":"Arbete på vägen. Risk för köbildning även ut på E4 vid trafikplats Kumla.","latitude":59.84631644520587,"longitude":17.720024407748333,"category":0,"subcategory":"Vägarbete"},{"id":1553125,"priority":4,"createddate":"2015-11-26T14:23:34.650Z","title":"Mora","exactlocation":"Fridhemsgatan","description":"Avstängd mellan Moragatan och Oxbergsvägen. Omledning uppskyltad.","latitude":61.002901588480924,"longitude":14.535675134854968,"category":0,"subcategory":"Vägarbete"},{"id":1551339,"priority":3,"createddate":"2015-12-11T08:42:41.427Z","title":"Lv 864 Danholn-Sundborn","exactlocation":"Överbackavägen","description":"Avstängt från 26/11 ca kl. 11:00. Pga arbeten med vatten och avlopp.","latitude":60.623680114746094,"longitude":15.79430103302002,"category":0,"subcategory":"Vägarbete"},{"id":1571845,"priority":3,"createddate":"2015-12-17T13:37:33.230Z","title":"Borås","exactlocation":"Sturegatan, mellan Yxhammarsgatan och Skolgatan","description":"Avstängt t o m onsdag 23/12 pga VA-arbete.","latitude":57.7239874999406,"longitude":12.94455459596354,"category":0,"subcategory":"Vägarbete"},{"id":1497351,"priority":3,"createddate":"2015-12-09T13:46:23.383Z","title":"Lv 120 Delary–Älmhult","exactlocation":"","description":"Begränsad framkomlighet förbi arbetet. Endast ett körfält öppet förbi så trafiken får köra växelvis. Risk för långa köer. ","latitude":56.549530029296875,"longitude":14.026314735412598,"category":0,"subcategory":"Vägarbete"},{"id":1439931,"priority":3,"createddate":"2015-12-02T08:21:38.187Z","title":"E20 Strängnäs","exactlocation":"Tpl Biskopskvarn (137)- tpl Lunda (136), mot Eskilstuna","description":"Begränsad framkomlighet. Bygge av järnvägsbro över E20. ","latitude":59.365291595458984,"longitude":16.964046478271484,"category":0,"subcategory":"Vägarbete"},{"id":1484713,"priority":3,"createddate":"2015-11-27T08:29:41.103Z","title":"E22 Söderköping","exactlocation":"Östra Rydsvägen–tpl Klevbrinken i riktning mot Norrköping","description":"Begränsad framkomlighet. Byggnation av en ny gång- och cykelväg.","latitude":58.483070373535156,"longitude":16.312185287475586,"category":0,"subcategory":"Vägarbete"},{"id":1557116,"priority":3,"createddate":"2015-12-11T16:13:58.837Z","title":"Lv 240 Molkom-Hagfors","exactlocation":"Fösked-Älvsbacka","description":"Begränsad framkomlighet. Diknings- och dräneringsarbete.","latitude":59.67658996582031,"longitude":13.683475494384766,"category":0,"subcategory":"Vägarbete"},{"id":1513371,"priority":3,"createddate":"2015-11-26T10:27:40.523Z","title":"E22 Kalmar–Karlskrona","exactlocation":"tpl Ljungbyholm–Hossmo i riktning mot Karlskrona","description":"Begränsad framkomlighet. Körfält avstängt vid arbetsplats för byggnation av nya väg E22","latitude":56.63808059692383,"longitude":16.222171783447266,"category":0,"subcategory":"Vägarbete"},{"id":1508092,"priority":5,"createddate":"2015-10-06T03:53:20.370Z","title":"Lv 241 från Sunne-Lerdalen","exactlocation":"","description":"Beläggningsarbete.","latitude":59.83991622924805,"longitude":13.188547134399414,"category":0,"subcategory":"Vägarbete"},{"id":1569151,"priority":4,"createddate":"2015-12-17T04:48:48.990Z","title":"Områdena kring Ödeshög och Boxholm","exactlocation":"","description":"Besiktning av elledningar med lågt flygande helikopter. Hästar och andra djur kan bli skrämda. Pågår 14–18 dec.","latitude":58.234752616257076,"longitude":14.649525213170689,"category":3,"subcategory":"Buller"},{"id":1566776,"priority":4,"createddate":"2015-12-17T17:38:49.373Z","title":"Stockholm","exactlocation":"\n","description":"Blodbussar fredag/lördag: Inga bussar på fredag men på lördag står det en på Stora torget i Gnesta.","latitude":59.32065297875915,"longitude":18.006091678412936,"category":3,"subcategory":"Hälsa och sjukvård"},{"id":1534135,"priority":3,"createddate":"2015-12-08T05:14:24.123Z","title":"Lv 660 Norrberge-Midlanda","exactlocation":"Bron över Indalsälven","description":"Bron är avstängd. Trafik hänvisas via E4","latitude":62.51906967163086,"longitude":17.42425537109375,"category":0,"subcategory":"Vägarbete"},{"id":1559533,"priority":3,"createddate":"2015-12-03T09:39:12.837Z","title":"Lv 541 Hassel-Lucksta","exactlocation":"","description":"Byte av vägtrumma. ","latitude":62.273338317871094,"longitude":16.879863739013672,"category":0,"subcategory":"Vägarbete"},{"id":1569698,"priority":3,"createddate":"2015-12-15T05:13:19.603Z","title":"E4 Uppsalavägen","exactlocation":"Södergående efter påfarten från Kista (171)","description":"Början av kollektivfilen avstängd strax efter påfarten.","latitude":59.399009704589844,"longitude":17.97714614868164,"category":0,"subcategory":"Vägarbete"},{"id":1544476,"priority":3,"createddate":"2015-11-16T10:09:05.113Z","title":"Rv 55 Strängnäs-Enköping","exactlocation":"Hjulstabron-cirkulationsplats Enögla riktning mot Uppsala","description":"Dikning. Rörligt arbete.","latitude":59.518310546875,"longitude":17.004179000854492,"category":0,"subcategory":"Vägarbete"},{"id":1557249,"priority":3,"createddate":"2015-12-02T04:50:07.503Z","title":"E4 Nyköping-Norrköping","exactlocation":"Trafikplats Gammelsta (128), i riktning mot Norrköping.","description":"Ett körfält avstängt. ","latitude":58.753318786621094,"longitude":16.547788619995117,"category":0,"subcategory":"Vägarbete"},{"id":1571907,"priority":3,"createddate":"2015-12-17T15:04:39.037Z","title":"Nässjö–Vetlanda–Nässjö","exactlocation":"","description":"Flera avgångar inställda och ersatta av buss vardagar från 18 december till 7 januari.","latitude":57.65196717930656,"longitude":14.705582167122488,"category":2,"subcategory":"Tåg"},{"id":1557682,"priority":3,"createddate":"2015-12-17T13:41:54.703Z","title":"Lv 891 Skenäsfärjan ","exactlocation":"","description":"Färjan står still till torsdag-fredag 17-18/12 kl. 08:30–16:00. Orsaken är att dykare finns i vattnet i samband med bojarbete.  ","latitude":58.638118743896484,"longitude":16.59667205810547,"category":1,"subcategory":"Färja"},{"id":1568482,"priority":3,"createddate":"2015-12-15T05:28:41.237Z","title":"Röduppleden","exactlocation":"","description":"Färjan är inställd. Ingen isväg i nuläget.","latitude":66.48563385009766,"longitude":22.77780532836914,"category":1,"subcategory":"Färja"},{"id":1521191,"priority":3,"createddate":"2015-11-10T10:33:20.150Z","title":"Magnus Ladulåsgatan mot Rosenlundsgatan","exactlocation":"Mellan Västgötagatan och Swedenborgsgatan","description":"Gatan enkelriktad mot Rosenlundsgatan från Västgötagatan till Swedenborgsgatan. Schakt för fjärrvärme. ","latitude":59.31259536743164,"longitude":18.066604614257812,"category":0,"subcategory":"Vägarbete"},{"id":1554578,"priority":3,"createddate":"2015-11-30T07:23:35.437Z","title":"Lv 316 Vemdalen-Åsarna","exactlocation":"Klövsjö","description":"Grävarbeten och nedläggning av kabel.  ","latitude":62.503658294677734,"longitude":14.200440406799316,"category":0,"subcategory":"Vägarbete"},{"id":1565286,"priority":3,"createddate":"2015-12-08T15:18:37.697Z","title":"Valhallavägen","exactlocation":"Mellan Surbrunnsgatan och Frejgatan","description":"Höger körfält avstängt på grund av vägarbete.","latitude":59.34732437133789,"longitude":18.065418243408203,"category":0,"subcategory":"Vägarbete"},{"id":1572127,"priority":3,"createddate":"2015-12-17T20:22:20.157Z","title":"Lv 260 Gudöbroleden","exactlocation":"Mellan Alléplan och Vendelsövägen/Skogsängsvägen båda riktningarna","description":"Infarten till Skogsängsvägen är avstängd","latitude":59.22562026977539,"longitude":18.20136833190918,"category":0,"subcategory":"Vägarbete"},{"id":1570856,"priority":3,"createddate":"2015-12-16T10:22:07.013Z","title":"E22 Mönsterås","exactlocation":"i höjd med Fliserydsvägen","description":"Kan vara smalt att passera. Arbete med att bygga bussfickor. Arbete pågår dagtid mellan kl: 9-15","latitude":57.05103302001953,"longitude":16.43939971923828,"category":0,"subcategory":"Vägarbete"},{"id":1571724,"priority":3,"createddate":"2015-12-17T19:01:24.423Z","title":"E10 Norska gränsen","exactlocation":"","description":"Kolonnkörning norska sidan.","latitude":68.431884765625,"longitude":18.117267608642578,"category":0,"subcategory":"Trafikstörning"},{"id":1442001,"priority":3,"createddate":"2015-11-18T04:56:21.000Z","title":"Lv 156 Skene","exactlocation":"Korsningen Varbergsvägen/Örbyvägen","description":"Körfält avstängt. Arbetsfordon finns på vägbanan. Arbete med att bredda vägen. ","latitude":57.48634338378906,"longitude":12.646737098693848,"category":0,"subcategory":"Vägarbete"},{"id":1572074,"priority":3,"createddate":"2015-12-17T18:29:08.607Z","title":"E6 Kungsbackaleden","exactlocation":"Vid Lackarebäcksmotet i riktning mot Kållered","description":"Körfält avstängt. Belysningsarbete.","latitude":57.67715072631836,"longitude":12.009167671203613,"category":0,"subcategory":"Vägarbete"},{"id":1567592,"priority":3,"createddate":"2015-12-11T15:53:00.070Z","title":"E6 av-/påfart från Bällskärsvägen, E6 (Tpl Tingstadsmotet) till E6.21 (Tpl Ringömotet) i Göteborg kommun","exactlocation":"Av-/påfart från Bällskärsvägen, Tingstadsmotet, södergående","description":"Körfält stängs av i samband med schaktningsarbeten.","latitude":57.73060607910156,"longitude":11.983270645141602,"category":0,"subcategory":"Vägarbete"},{"id":1406672,"priority":3,"createddate":"2015-12-11T16:28:08.547Z","title":"E20 Partille–Lerum","exactlocation":"Jerikotunneln–Fräntorpsmotet(78)","description":"Körfält stängs av nattetid på grund av asfalteringsarbete.","latitude":57.74127197265625,"longitude":12.185935974121094,"category":0,"subcategory":"Vägarbete"},{"id":1567569,"priority":3,"createddate":"2015-12-11T15:50:30.527Z","title":"E6 vid Ringömotet","exactlocation":"Södergående","description":"Körfältsavstängning i samband med ombyggnadsarbete.\n","latitude":57.72996520996094,"longitude":11.982913970947266,"category":0,"subcategory":"Vägarbete"},{"id":1557082,"priority":3,"createddate":"2015-11-30T14:06:09.050Z","title":"E16 Kungsgården-Sandviken","exactlocation":"Mellan tpl Åsen och tpl Sandviken Västra i riktning mot Sandviken","description":"Montering av fundament för elstolpar.","latitude":60.60951232910156,"longitude":16.647851943969727,"category":0,"subcategory":"Vägarbete"},{"id":1572129,"priority":3,"createddate":"2015-12-17T20:17:20.137Z","title":"Högsby, Storgatan","exactlocation":"Utanför biblioteket","description":"Olycka med flera fordon.","latitude":57.16504709814355,"longitude":16.02593820995793,"category":0,"subcategory":"Trafikolycka"},{"id":1546988,"priority":3,"createddate":"2015-11-19T06:04:56.053Z","title":"Rv 61 Åmotsfors-Charlottenberg","exactlocation":"Dalen till Solhem ","description":"Ombyggnad till 2+1 väg.","latitude":59.78485870361328,"longitude":12.354942321777344,"category":0,"subcategory":"Vägarbete"},{"id":1571717,"priority":3,"createddate":"2015-12-17T11:02:57.430Z","title":"Rv 97 Jokkmokk- Vuollerim","exactlocation":"Lenatorp","description":"Renar i vägområdet.","latitude":66.51741027832031,"longitude":20.225664138793945,"category":0,"subcategory":"Trafikstörning"},{"id":1570810,"priority":3,"createddate":"2015-12-16T07:54:31.353Z","title":"E4 Åkroken","exactlocation":"","description":"Renar på eller brevid vägen","latitude":65.8818359375,"longitude":22.93731689453125,"category":0,"subcategory":"Trafikstörning"},{"id":1511538,"priority":3,"createddate":"2015-12-17T04:55:20.530Z","title":"Stockholms län","exactlocation":"","description":"Risk för halt väglag pga snöblandat regn på kalla vägbanor. Även risk för lokalt underkylt regn. Tänk på att även gång- och cykelbanor kan vara mycket hala. ","latitude":59.3269844,"longitude":17.8068523,"category":0,"subcategory":"Halkvarning"},{"id":1572104,"priority":3,"createddate":"2015-12-17T19:25:38.003Z","title":"E4 Norrtjärn-Själevad","exactlocation":"","description":"Risk för kö. Vägarbete.","latitude":63.26342010498047,"longitude":18.527711868286133,"category":0,"subcategory":"Vägarbete"},{"id":1571448,"priority":4,"createddate":"2015-12-17T16:38:23.873Z","title":"Dalarnas Län","exactlocation":"Hela länet","description":"Risk för lokal ishalka i länet under kvällen och natten på grund av regn på kalla vägbanor.","latitude":60.734405517578125,"longitude":14.728421211242676,"category":0,"subcategory":"Halkvarning"},{"id":1571450,"priority":4,"createddate":"2015-12-17T16:36:52.940Z","title":"Gävleborgs län","exactlocation":"Hela länet","description":"Risk för lokal ishalka i länet under natten på grund av regn på kalla vägbanor","latitude":61.47047424316406,"longitude":16.702789306640625,"category":0,"subcategory":"Halkvarning"},{"id":1570074,"priority":3,"createddate":"2015-12-15T16:48:28.980Z","title":"Rv 21 Hässleholm–Tyringe","exactlocation":"Tpl Finja–Smedstorp i riktning mot Tyringe","description":"Räckesarbete.","latitude":56.174617767333984,"longitude":13.680843353271484,"category":0,"subcategory":"Vägarbete"},{"id":1569515,"priority":4,"createddate":"2015-12-14T15:16:37.503Z","title":"Östergötland","exactlocation":"","description":"Röjningsarbete pågår fortfarande efter stormen Helga. Allmänheten uppmanas att vara uppmärksam och undvika elledningar och stolpar som ligger på marken. Om man gör några observationer av trasiga anläggningar kontakta Vattenfall Eldistributions felanmälan på telefon 020-82 58 58.  ","latitude":58.24989990721928,"longitude":15.799687786892436,"category":3,"subcategory":"El"},{"id":1569836,"priority":4,"createddate":"2015-12-15T10:01:17.627Z","title":"Norra Skåne","exactlocation":"","description":"Rör inte elledningar som hänger lågt eller ligger på marken. Ring till E.ons felanmälan 020-88 00 22 och rapportera.","latitude":56.06314764536058,"longitude":13.857516324200596,"category":3,"subcategory":"El"},{"id":1572117,"priority":3,"createddate":"2015-12-17T19:58:57.873Z","title":"E4 Nordmaling-Rundvik","exactlocation":"Mellan tpl Lögdeå och tpl Silverlaxen","description":"Singelolycka.","latitude":63.54194259643555,"longitude":19.407115936279297,"category":0,"subcategory":"Trafikolycka"},{"id":1572134,"priority":3,"createddate":"2015-12-17T20:27:25.017Z","title":"Lv 816 Ekerövägen","exactlocation":"Vid Nyckelby","description":"Singelolycka.","latitude":59.28834799522656,"longitude":17.704247870950613,"category":0,"subcategory":"Trafikolycka"},{"id":1571113,"priority":4,"createddate":"2015-12-17T18:12:59.413Z","title":"Gävleborgs län","exactlocation":"","description":"SMHI klass 1 varning för ishalka under torsdagen. Regn och blötsnö på kalla vägbanor.","latitude":61.07691548753405,"longitude":16.916347755085,"category":3,"subcategory":"Väder"},{"id":1571082,"priority":4,"createddate":"2015-12-17T11:35:53.573Z","title":"Dalarnas län","exactlocation":"","description":"SMHI klass 1 varning: Under dagen risk för underkylt regn, regn eller blötsnö på kalla vägbanor. ","latitude":60.616969443850316,"longitude":15.675294873862951,"category":3,"subcategory":"Väder"},{"id":1571657,"priority":3,"createddate":"2015-12-17T15:14:41.217Z","title":"Västerbottens län","exactlocation":"Inland och kustland","description":"SMHI Varning Klass 1 för plötslig ishalka. Risk för underkylt regn eller regn på kalla vägbanor.  ","latitude":64.80024064199965,"longitude":18.712074937641482,"category":0,"subcategory":"Halkvarning"},{"id":1571426,"priority":3,"createddate":"2015-12-17T19:32:11.110Z","title":"Västernorrlands län","exactlocation":"","description":"SMHI Varning Klass 1 för plötslig ishalka: Risk för underkylt regn eller regn på kalla vägbanor, främt i södra delen. Upphörande nederbörd under eftermiddagen.","latitude":62.6604499940572,"longitude":17.625068093717626,"category":0,"subcategory":"Halkvarning"},{"id":1571425,"priority":3,"createddate":"2015-12-17T18:12:17.933Z","title":"Jämtlands län","exactlocation":" ","description":"SMHI Varning Klass 1 för plötslig ishalka: Risk för underkylt regn eller regn på kalla vägbanor.","latitude":62.4174183208612,"longitude":13.396357079884472,"category":0,"subcategory":"Halkvarning"},{"id":1571654,"priority":3,"createddate":"2015-12-17T20:26:41.617Z","title":"Norrbottens län","exactlocation":"Norra lapplandsfjällen","description":"SMHI-varning Klass 1, hård vind med snödrev eller nederbörd. Från natten mot fredag sydlig vind, 14-17 m/s, och snöfall.","latitude":68.29582490360632,"longitude":19.46579170376826,"category":3,"subcategory":"Väder"},{"id":1572107,"priority":3,"createddate":"2015-12-17T19:26:26.177Z","title":"E22 Gårdstånga-Lund","exactlocation":"2,5 km före Lund norra","description":"Stillastående bil. Person rör sig runt fordonet. ","latitude":55.76938247680664,"longitude":13.310497283935547,"category":0,"subcategory":"Trafikstörning"},{"id":1572116,"priority":3,"createddate":"2015-12-17T19:55:41.467Z","title":"Lv 137 Ölandsleden","exactlocation":"Svinöbron i riktning mot Öland","description":"Stillastående buss med punktering står på högbrodelen. Bärgare är beställd.","latitude":56.68372344970703,"longitude":16.370361328125,"category":0,"subcategory":"Trafikstörning"},{"id":1487819,"priority":3,"createddate":"2015-12-17T00:34:47.007Z","title":"Värmlands län","exactlocation":"","description":"Stor risk för ishalka.","latitude":59.8638344,"longitude":13.2893448,"category":0,"subcategory":"Halkvarning"},{"id":1510140,"priority":3,"createddate":"2015-12-17T00:36:14.370Z","title":"Västra Götalands län","exactlocation":"","description":"Stor risk för ishalka.","latitude":58.0697441,"longitude":12.3502855,"category":0,"subcategory":"Halkvarning"},{"id":1263776,"priority":3,"createddate":"2015-12-17T00:35:58.847Z","title":"Örebro län ","exactlocation":"","description":"Stor risk för ishalka.","latitude":59.4352722,"longitude":14.7333231,"category":0,"subcategory":"Halkvarning"},{"id":1511540,"priority":4,"createddate":"2015-12-17T00:35:24.027Z","title":"Uppsala län","exactlocation":"","description":"Stor risk för ishalka.","latitude":59.96126,"longitude":17.78068,"category":0,"subcategory":"Halkvarning"},{"id":1511539,"priority":4,"createddate":"2015-12-17T00:34:13.797Z","title":"Västmanlands län ","exactlocation":"","description":"Stor risk för ishalka.","latitude":59.946888,"longitude":16.2786083,"category":0,"subcategory":"Halkvarning"},{"id":1481993,"priority":3,"createddate":"2015-09-23T13:26:56.513Z","title":"Rv 23 Växjö","exactlocation":"Korsningen Stora Räppevägen/Norrleden","description":"Stundtals köer. Byggnation av gång- och cykelport.","latitude":56.869258880615234,"longitude":14.73924732208252,"category":0,"subcategory":"Vägarbete"},{"id":1515180,"priority":3,"createddate":"2015-11-24T10:39:01.940Z","title":"Rv 32 Tranås-Sommen","exactlocation":"","description":"Södergående trafik leds av vid Tenbäcken och kör gamla vägen till Tranås. Norrgående trafik passerar på rv 32 som vanligt, begränsad framkomlighet där. Omledningen beräknas gälla fram till jul. Vägen byggs om till 2+1-väg ","latitude":58.06538772583008,"longitude":14.95679759979248,"category":0,"subcategory":"Vägarbete"},{"id":1546358,"priority":5,"createddate":"2015-11-29T18:42:10.847Z","title":"Midvägen Östersund","exactlocation":"","description":"Till följd av ökad obehörig trafik vid Lugnvikskolan stängs Midvägen av för trafik mellan 07.00-17.00. Under den tiden får endast fordon i linjetrafik samt fordon med rörelsehindrad person som innehar parkeringstillstånd färdas på vägen.","latitude":63.205564994924174,"longitude":14.630246761853261,"category":0,"subcategory":"Trafikstörning"},{"id":1562926,"priority":3,"createddate":"2015-12-09T05:16:34.460Z","title":"Rv 55 Uppsala–Enköping","exactlocation":"Litslena - tpl Annelund (143) i riktning mot Strängnäs ","description":"Trafiken leds med signal eller vakt. ","latitude":59.66455841064453,"longitude":17.266510009765625,"category":0,"subcategory":"Vägarbete"},{"id":1557988,"priority":3,"createddate":"2015-12-01T10:02:35.283Z","title":"E6 Strömstad–Svinesund","exactlocation":"Nordbymotet (114)–Svinesund","description":"Trafiken leds över på en körbana. Orsaken är rivning av en betalstation.","latitude":59.07704162597656,"longitude":11.24947738647461,"category":0,"subcategory":"Vägarbete"},{"id":1526215,"priority":5,"createddate":"2015-12-08T10:31:18.643Z","title":"Rv 72 Vänge-Kvarnbo","exactlocation":"","description":"Trafiken regleras med ljussignaler på grund av kabelarbete.","latitude":59.85140609741211,"longitude":17.49069595336914,"category":0,"subcategory":"Vägarbete"},{"id":1563338,"priority":5,"createddate":"2015-12-06T15:10:09.677Z","title":"Lv 815 Fellingsbro-Örebro","exactlocation":"Karltorp","description":"Träd över vägen i riktning mot Örebro","latitude":59.379780734207195,"longitude":15.439994573446493,"category":0,"subcategory":"Trafikstörning"},{"id":1572137,"priority":3,"createddate":"2015-12-17T20:29:37.570Z","title":"Lv 265 Norrortsleden ","exactlocation":"Löttingetunneln i båda riktningar","description":"Tunneln stängd mellan kl 21 - 06. Vägarbete.","latitude":59.48260572513661,"longitude":18.09322423146506,"category":0,"subcategory":"Vägarbete"},{"id":1559467,"priority":4,"createddate":"2015-12-16T04:45:46.493Z","title":"Hässleholms kommun","exactlocation":"","description":"Under jul- och nyårshelgen kan sophämtningen avvika från det normala. Sätt därför ut kärl och säckar två dagar innan ordinarie hämtning och låt stå tills de blir tömda.\n","latitude":56.161145514975054,"longitude":13.759663742875192,"category":3,"subcategory":"Övrigt"},{"id":1564938,"priority":4,"createddate":"2015-12-14T06:06:49.717Z","title":"Blodcentralerna","exactlocation":"","description":"Vädjan från blodcentralen om hjälp med att fylla upp blodlagren genom att lämna blod inför kommande helger. Välkommen till de  fasta blodcentralerna eller blodbussar.","latitude":59.32815695796981,"longitude":18.16465430127802,"category":3,"subcategory":"Hälsa och sjukvård"},{"id":1570305,"priority":3,"createddate":"2015-12-15T13:53:27.750Z","title":"Uppsala","exactlocation":"Stationsgatan/Strandbogatan","description":"Vägarbete, stängt för gående och cyklister. ","latitude":59.85644028297933,"longitude":17.653565478384916,"category":0,"subcategory":"Trafikstörning"},{"id":1556757,"priority":5,"createddate":"2015-12-08T11:30:38.383Z","title":"Rv 55 Uppsala-Enköping","exactlocation":"Bärbyleden/Enköpingsvägen","description":"Vägarbete.","latitude":59.855125427246094,"longitude":17.592878341674805,"category":0,"subcategory":"Vägarbete"},{"id":1569436,"priority":3,"createddate":"2015-12-14T14:25:53.960Z","title":"Lv 153 Ullared","exactlocation":"","description":"Vägarbete. Kan vara trångt att passera.","latitude":57.13759994506836,"longitude":12.710490226745605,"category":0,"subcategory":"Vägarbete"},{"id":1571824,"priority":2,"createddate":"2015-12-17T17:28:16.257Z","title":"E4 Söderhamn-Gävle","exactlocation":"Vid avfart Sörljusne","description":"Vägen avstängd från och med kl 18:30 i riktning mot Gävle. Bärgning av lastbil. Skyltning finns för omlagd körväg.","latitude":61.210201263427734,"longitude":17.04628562927246,"category":0,"subcategory":"Trafikstörning"},{"id":1572092,"priority":2,"createddate":"2015-12-17T20:16:50.527Z","title":"E4 Skånes Fagerhult-Örkelljunga","exactlocation":"Före Skåneporten","description":"Vägen avstängd i södergående riktning. Olycka med flera fordon.","latitude":56.29768079720471,"longitude":13.384044069817648,"category":0,"subcategory":"Trafikolycka"},{"id":1542094,"priority":3,"createddate":"2015-11-27T10:10:42.497Z","title":"Borås","exactlocation":"Åsbogatan, mellan Kungsleden och Allégatan","description":"Vägen avstängd pga byggnation av bussfil.","latitude":57.719811893090274,"longitude":12.943832949851924,"category":0,"subcategory":"Vägarbete"},{"id":1571145,"priority":3,"createddate":"2015-12-17T13:13:58.990Z","title":"Lv 611 Hagelstorp-Gynnås","exactlocation":"","description":"Vägen avstängd pga byte av vägtrumma.","latitude":57.37741470336914,"longitude":13.678582191467285,"category":0,"subcategory":"Vägarbete"},{"id":1537497,"priority":5,"createddate":"2015-11-29T18:41:46.417Z","title":"Lv 1019 vid Storulvån båda riktningarna","exactlocation":"","description":"Vägen till Storulvån är vinterstängd mellan 1/11 - 31/1.","latitude":63.21542739868164,"longitude":12.406817436218262,"category":0,"subcategory":"Trafikstörning"},{"id":1558430,"priority":4,"createddate":"2015-12-04T19:36:02.383Z","title":"Lv 531 Funäsdalen-Ljungdalen ","exactlocation":"Från Mittådalen till Ljungdalen ","description":"Vägen över Flatruet är nattstängd mellan klockan 22:00-06:00 under perioden 1 December-15 April. Vid besvärligt väder kan vägen stängas med kort varsel även under annan tid.","latitude":62.77565383911133,"longitude":12.765754699707031,"category":0,"subcategory":"Trafikstörning"},{"id":1558549,"priority":4,"createddate":"2015-12-02T14:02:41.027Z","title":"Umeå, Umeälven","exactlocation":"Vid järnvägsbron mellan Bergsboda och Stor-Sandskär","description":"Isränna bryts så fort isen lägger sig. Isrännan kvarstår december ut.  ","latitude":63.76707632042192,"longitude":20.32501859948121,"category":3,"subcategory":"Övrigt"},{"id":1551498,"priority":3,"createddate":"2015-12-11T04:15:22.783Z","title":"Västberga","exactlocation":"Västberga allé bron över järnvägen ","description":"Omlagd körväg för linje 165, linje 143 dras in på sträckan Liljeholmen-Älvsjö stn.  Nya linje145 trafikerar sträckan Telefonplan-Västberga-Årstaberg-(Liljeholmen). ","latitude":59.288072367712566,"longitude":18.01951159520339,"category":1,"subcategory":"Buss"},{"id":1564995,"priority":3,"createddate":"2015-12-14T15:19:48.547Z","title":"Västberga-Älvsjö","exactlocation":"Västberga allé bron som går över järnvägen och Åbyvägen","description":"Bron stängd för renovering från 14 december. Kommer att vara avstängd för biltrafik till sommaren 2017. ","latitude":59.288883209228516,"longitude":18.018430709838867,"category":0,"subcategory":"Vägarbete"},{"id":1564467,"priority":3,"createddate":"2015-12-17T06:41:32.203Z","title":"Solna Ankdammsgatan","exactlocation":"Korsningen Huvudstagatan","description":"Korsningen är enkelriktad, trafiken från Ankdammsgatan får inte köra ut på Huvudstagatan.","latitude":59.35640492453957,"longitude":17.997326555475574,"category":0,"subcategory":"Trafikstörning"},{"id":1380130,"priority":3,"createddate":"2015-12-11T16:21:31.697Z","title":"Lv190 Gråbovägen","exactlocation":"Bergsjökrysset","description":"Rondell byggs i korsningen Gråbovägen/Bergsjövägen som en del i den större ombyggnaden av Gråbovägen. ","latitude":57.7848526286231,"longitude":12.088115548634436,"category":0,"subcategory":"Vägarbete"},{"id":1552649,"priority":4,"createddate":"2015-12-17T07:16:09.317Z","title":"Roslagsbanan","exactlocation":"Stockholms östra - Universitetet ","description":"29 nov-18 dec är tågen inställda kvällstid från kl.22:40 t.o.m. trafikdygnets slut fr.o.m. kväll/natt mot måndag t.o.m. kväll/natt mot fredag. ","latitude":59.34833188363228,"longitude":18.076839632193813,"category":1,"subcategory":"Tåg"},{"id":1524596,"priority":3,"createddate":"2015-12-17T13:04:35.983Z","title":"E6 och Lundbyleden ","exactlocation":"Norr och söder om Tingstadstunneln","description":"Tingstadstunneln är stängd 13.20-13.30 tisdagar och torsdagar. Detta på grund av sprängsningsarbeten i samband med den nya Marieholmstunneln.","latitude":57.72703409845906,"longitude":11.981105082125636,"category":0,"subcategory":"Vägarbete"},{"id":1563801,"priority":2,"createddate":"2015-12-17T06:00:21.397Z","title":"Örebro-Borlänge/Falun/Gävle/Mjölby/Lindesberg","exactlocation":"Frövi","description":"Stopp för tågtrafik mellan Skinnskatteberg och Örebro pga godståg som spårat ut vid Frövi.","latitude":59.465029844507576,"longitude":15.366200419183267,"category":1,"subcategory":"Tåg"},{"id":1436158,"priority":3,"createddate":"2015-10-15T11:34:05.153Z","title":"Lv 824/ lv 1067 Gäddede-Klimpfjäll","exactlocation":"Stekenjokkvägen mellan Leipikvattnet och Klimpfjäll","description":"Vägen är nu stängd för säsongen. Öppnas åter för trafik 6 juni 2016.","latitude":64.84821319580078,"longitude":14.175168991088867,"category":0,"subcategory":"Vägarbete"}],"pagination":{"page":1,"size":100,"totalhits":91,"totalpages":1},"meta":{"time":1450384661324,"bestBefore":1450384961324}}